"Region","Provincia","Comuna","Temporada","Nombre","Fecha","HoraInicio","DuracionMinutos","Alerta","Escenario","Causa","SuperficieQuemadaPinoA","SuperficieQuemadaPinoB","SuperficieQuemadaPinoC","SuperficieQuemadaEucalipto","SuperficieQuemadaOtrasPlantas","SuperficieQuemadaArbolado","SuperficieQuemadaMatorral","SuperficieQuemadaPastizal","SuperficieQuemadaAgricola","SuperficieQuemadaDesechos","SuperficieQuemadaTotal","Latitud","Longitud","Datum"
"Coquimbo","Elqui","La Serena","2002-2003","ALTOVALSOL","2002-07-05","21:05",195,"Sin alerta","No definido","No definida",0,0,0,0,0,0,0.01,0.03,0,0,0.04,-29.9355555555556,-71.1083333333333,"WGS84"
"Coquimbo","Elqui","La Serena","2002-2003","CERES","2002-10-25","11:50",137,"Sin alerta","No definido","No definida",0,0,0,0,0,0,0.01,0.01,0,0,0.02,-29.9336111111111,-71.2119444444444,"WGS84"
"Coquimbo","Limarí","Punitaqui","2002-2003","LA RINCONADA","2002-10-27","11:50",190,"Sin alerta","No definido","No definida",0,0,0,0,0,0,0,0.01,0,0,0.01,-30.8330555555556,-71.3680555555556,"WGS84"
"Coquimbo","Elqui","Coquimbo","2002-2003","CERRO LA VIRGEN.","2002-11-02","17:00",90,"Sin alerta","No definido","No definida",0,0,0,0,0,0,0.5,1.5,0,0,2,-29.9958333333333,-71.2755555555556,"WGS84"
"Coquimbo","Elqui","La Serena","2002-2003","LA VARILLA","2002-11-02","15:30",210,"Sin alerta","No definido","No definida",0,0,0,0,0,0,2,5,0,0,7,-29.88,-71.19,"WGS84"
"Coquimbo","Elqui","Coquimbo","2002-2003","EL SAUCE","2002-11-03","13:10",560,"Sin alerta","No definido","No definida",0,0,0,2.8,0,0,50,12.7,0,0,65.5,-30.1038888888889,-71.2883333333333,"WGS84"
"Coquimbo","Elqui","La Serena","2002-2003","ALTOVALSOL  1","2002-11-03","18:00",625,"Sin alerta","No definido","No definida",0,0,0,0,0,0,15,25,0,0,40,-29.9266666666667,-71.0875,"WGS84"
"Coquimbo","Limarí","Ovalle","2002-2003","LA CHIMBA","2002-11-04","15:10",80,"Sin alerta","No definido","No definida",0,0,0,0,0,0,0,0.01,0,0,0.01,-30.6272222222222,-71.2691666666667,"WGS84"
"Coquimbo","Limarí","Punitaqui","2002-2003","PUEBLO NUEVO.","2002-11-04","16:00",180,"Sin alerta","No definido","No definida",0,0,0,0,0,0,0,0.01,0,0,0.01,-30.8705555555556,-71.2958333333333,"WGS84"
"Coquimbo","Limarí","Ovalle","2002-2003","TALINAY","2002-11-05","14:30",1260,"Sin alerta","No definido","No definida",0,0,0,0,0,0,0.3,1.7,0,0,2,-30.9358333333333,-71.6427777777778,"WGS84"
"Coquimbo","Elqui","La Serena","2002-2003","INACAP","2002-11-07","07:00",426,"Sin alerta","No definido","No definida",0,0,0,0,0,0,0.6,0.9,0,0,1.5,-29.9077777777778,-71.2691666666667,"WGS84"
"Coquimbo","Elqui","La Serena","2002-2003","QUILACAN","2002-11-08","12:10",645,"Sin alerta","No definido","No definida",0,0,0,5,0,0,10,20,0,0,35,-29.9802777777778,-71.13,"WGS84"
"Coquimbo","Elqui","La Serena","2002-2003","GABRIELA MISTRAL","2002-11-09","11:40",230,"Sin alerta","No definido","No definida",0,0,0,0,0,0,0.02,0.08,0,0,0.1,-29.9808333333333,-71.0886111111111,"WGS84"
"Coquimbo","Elqui","La Serena","2002-2003","RESERVA QUILACAN.","2002-11-09","14:30",403,"Sin alerta","No definido","No definida",0,0,0,0.5,0,0,3,1.5,0,0,5,-29.9891666666667,-71.1302777777778,"WGS84"
"Coquimbo","Limarí","Punitaqui","2002-2003","LAS LLUVIAS","2002-11-14","18:00",165,"Sin alerta","No definido","No definida",0,0,0,0,0,0,0,0.01,0,0,0.01,-30.8263888888889,-71.2322222222222,"WGS84"
"Coquimbo","Limarí","Punitaqui","2002-2003","VIÑA VIEJA.","2002-11-16","15:00",285,"Sin alerta","No definido","No definida",0,0,0,0,0,0,0,0.01,0,0,0.01,-30.8563888888889,-71.0655555555556,"WGS84"
"Coquimbo","Choapa","Illapel","2002-2003","CERRO LA CRUZ","2002-11-17","16:10",110,"Sin alerta","No definido","No definida",0,0,0,0,0,0,0,0.01,0,0,0.01,-31.6297222222222,-71.1983333333333,"WGS84"
"Coquimbo","Limarí","Punitaqui","2002-2003","CIENAGO","2002-11-18","15:00",225,"Sin alerta","No definido","No definida",0,0,0,0,0,0,0,0.01,0,0,0.01,-30.7969444444444,-71.3672222222222,"WGS84"
"Coquimbo","Limarí","Punitaqui","2002-2003","LA HIGUERA","2002-11-20","10:00",115,"Sin alerta","No definido","No definida",0,0,0,0,0,0,0,0.01,0,0,0.01,-30.8616666666667,-71.2747222222222,"WGS84"
"Coquimbo","Elqui","La Serena","2002-2003","LAS ROJAS","2002-11-20","16:00",330,"Sin alerta","No definido","No definida",0,0,0,0,0,0,0,0.01,0,0,0.01,-29.9633333333333,-71.0572222222222,"WGS84"
"Coquimbo","Limarí","Ovalle","2002-2003","ALTOS LA CHIMBA","2002-11-20","18:00",180,"Sin alerta","No definido","No definida",0,0,0,0,0,0,0,0.01,0,0,0.01,-30.6633333333333,-71.27,"WGS84"
"Coquimbo","Choapa","Los Vilos","2002-2003","PEAJE PICHIDANGUI","2002-11-26","16:30",330,"Sin alerta","No definido","No definida",0,0,0,0,0,3,5,22,0,0,30,-32.175,-71.5222222222222,"WGS84"
"Coquimbo","Choapa","Illapel","2002-2003","MAL PASO","2002-11-29","14:25",335,"Sin alerta","No definido","No definida",0,0,0,0.5,0,0,4.5,5,0,0,10,-31.7483333333333,-71.1272222222222,"WGS84"
"Coquimbo","Elqui","La Serena","2002-2003","EL OLIVAR","2002-11-30","15:30",200,"Sin alerta","No definido","No definida",0,0,0,0,0,0,1,2,0,0,3,-29.88,-71.19,"WGS84"
"Coquimbo","Limarí","Ovalle","2002-2003","LOS OLIVOS","2002-12-05","14:02",253,"Sin alerta","No definido","No definida",0,0,0,0,0,0,1,2,0,0,3,-30.5963888888889,-71.4875,"WGS84"
"Coquimbo","Choapa","Illapel","2002-2003","CANELILLO ALTO","2002-12-09","07:30",540,"Sin alerta","No definido","No definida",0,0,0,0,3,1.5,0.5,5,0,0,10,-31.7544444444444,-71.2963888888889,"WGS84"
"Coquimbo","Elqui","Coquimbo","2002-2003","HUACHALALUME","2002-12-09","15:30",350,"Sin alerta","No definido","No definida",0,0,0,0,0,0,2,18,0,0,20,-29.9688888888889,-71.2644444444445,"WGS84"
"Coquimbo","Elqui","Andacollo","2002-2003","LA CALDERA","2002-12-11","14:00",210,"Sin alerta","No definido","No definida",0,0,0,0,0,0.3,0.7,2,0,0,3,-30.2613888888889,-71.0322222222222,"WGS84"
"Coquimbo","Limarí","Ovalle","2002-2003","TALINAY  1","2002-12-12","15:30",345,"Sin alerta","No definido","No definida",0,0,0,0,0,0,5,10,0,0,15,-30.8461111111111,-71.6297222222222,"WGS84"
"Coquimbo","Choapa","Los Vilos","2002-2003","PUPIDO","2002-12-15","09:05",97,"Sin alerta","No definido","No definida",0,0,0,0,0,0,0.1,0.2,0,0,0.3,-31.8691666666667,-71.4258333333333,"WGS84"
"Coquimbo","Choapa","Los Vilos","2002-2003","QUEREO","2002-12-15","14:15",135,"Sin alerta","No definido","No definida",0,0,0,0,0,0,0,10,0,0,10,-31.9219444444444,-71.5013888888889,"WGS84"
"Coquimbo","Choapa","Los Vilos","2002-2003","QUEREO 1","2002-12-18","16:50",70,"Sin alerta","No definido","No definida",0,0,0,0,0,0,0,0.03,0,0,0.03,-31.9327777777778,-71.3958333333333,"WGS84"
"Coquimbo","Elqui","La Serena","2002-2003","PARCELAS U. DE LA SERENA","2002-12-18","17:00",100,"Sin alerta","No definido","No definida",0,0,0,0,0,0,0,0.03,0,0,0.03,-29.9241666666667,-71.2427777777778,"WGS84"
"Coquimbo","Limarí","Ovalle","2002-2003","EL TRAPICHE","2002-12-20","13:15",165,"Sin alerta","No definido","No definida",0,0,0,0,0,0,0,7,0,0,7,-30.6344444444444,-71.3736111111111,"WGS84"
"Coquimbo","Choapa","Los Vilos","2002-2003","TOTORALILLO","2002-12-20","16:50",1390,"Sin alerta","No definido","No definida",0,0,0,0,189,0,27,324,0,0,540,-32.0122222222222,-71.4933333333333,"WGS84"
"Coquimbo","Limarí","Ovalle","2002-2003","CANTA RANA","2002-12-22","16:30",120,"Sin alerta","No definido","No definida",0,0,0,0,0,0,0,2,0,0,2,-30.6411111111111,-71.4991666666667,"WGS84"
"Coquimbo","Choapa","Los Vilos","2002-2003","QUILIMARI","2002-12-23","17:10",185,"Sin alerta","No definido","No definida",0,0,0,0.5,0,0,0.5,1,0,0,2,-32.1469444444444,-71.5180555555555,"WGS84"
"Coquimbo","Choapa","Los Vilos","2002-2003","MATA GORDA","2002-12-24","15:00",60,"Sin alerta","No definido","No definida",0,0,0,0,0,0,0,0.04,0,0,0.04,-31.9130555555556,-71.4905555555556,"WGS84"
"Coquimbo","Elqui","Coquimbo","2002-2003","MAJADA BLANCA","2002-12-24","18:30",1240,"Sin alerta","No definido","No definida",0,0,0,0,0,0,98,147,0,0,245,-30.0225,-71.2966666666667,"WGS84"
"Coquimbo","Elqui","Coquimbo","2002-2003","MAJADA BLANCA   1","2002-12-25","18:30",1024,"Sin alerta","No definido","No definida",0,0,0,0,0,0,5,10,0,0,15,-30.0047222222222,-71.2861111111111,"WGS84"
"Coquimbo","Limarí","Ovalle","2002-2003","LATORRE","2002-12-26","17:00",110,"Sin alerta","No definido","No definida",0,0,0,0,0,0,1,2,0,0,3,-30.6163888888889,-71.3733333333333,"WGS84"
"Coquimbo","Choapa","Los Vilos","2002-2003","MATAGORDA  1","2002-12-29","13:35",40,"Sin alerta","No definido","No definida",0,0,0,0,0,0,0,0.3,0,0,0.3,-31.9130555555556,-71.4905555555556,"WGS84"
"Coquimbo","Choapa","Los Vilos","2002-2003","MONTE ARANDA","2002-12-30","13:30",305,"Sin alerta","No definido","No definida",0,0,0,0,0,85,136,119,0,0,340,-31.9452777777778,-71.2163888888889,"WGS84"
"Coquimbo","Elqui","La Serena","2002-2003","EL SANTO","2003-01-07","08:45",330,"Sin alerta","No definido","No definida",0,0,0,0,0,0,0,1,0,0,1,-29.9061111111111,-71.2527777777778,"WGS84"
"Coquimbo","Elqui","Coquimbo","2002-2003","EL MIRADOR","2003-01-10","15:25",243,"Sin alerta","No definido","No definida",0,0,0,0,0,0,1,3.5,0,0,4.5,-30.0036111111111,-71.3377777777778,"WGS84"
"Coquimbo","Limarí","Ovalle","2002-2003","MIRADOR ORIENTE","2003-01-17","15:00",195,"Sin alerta","No definido","No definida",0,0,0,0,0,0,5.5,2,0,0,7.5,-30.6194444444444,-71.2063888888889,"WGS84"
"Coquimbo","Choapa","Illapel","2002-2003","LA COCINERA","2003-01-17","15:00",375,"Sin alerta","No definido","No definida",0,0,0,0.5,0,1.5,3,3,0,0,8,-31.6402777777778,-71.1036111111111,"WGS84"
"Coquimbo","Elqui","La Serena","2002-2003","EL OLIVAR 1","2003-01-20","12:05",325,"Sin alerta","No definido","No definida",0,0,0,0,0,0,2,8,0,0,10,-29.88,-71.19,"WGS84"
"Coquimbo","Elqui","Coquimbo","2002-2003","EL TANGUE","2003-01-20","15:00",350,"Sin alerta","No definido","No definida",0,0,0,0,0,0,80,100,0,0,180,-30.3722222222222,-71.4088888888889,"WGS84"
"Coquimbo","Limarí","Ovalle","2002-2003","LIMARI","2003-01-21","16:00",85,"Sin alerta","No definido","No definida",0,0,0,0,0,0,0,0.5,0,0,0.5,-30.6088888888889,-71.3,"WGS84"
"Coquimbo","Choapa","Los Vilos","2002-2003","SHEL","2003-01-24","12:00",95,"Sin alerta","No definido","No definida",0,0,0,0,0,0,0,0.25,0,0,0.25,-31.9038888888889,-71.4902777777778,"WGS84"
"Coquimbo","Choapa","Canela","2002-2003","MILLAHUE","2003-01-28","12:00",460,"Sin alerta","No definido","No definida",0,0,0,0,0,50,84,140,6,0,280,-31.6611111111111,-71.4522222222222,"WGS84"
"Coquimbo","Elqui","La Serena","2002-2003","PARQUE COLL.","2003-01-29","14:30",315,"Sin alerta","No definido","No definida",0,0,0,0.5,0,0,0.5,1.5,0,0,2.5,-29.9238888888889,-71.2530555555556,"WGS84"
"Coquimbo","Limarí","Ovalle","2002-2003","CERRILLOS POBRES","2003-01-29","16:00",150,"Sin alerta","No definido","No definida",0,0,0,0,0,0,7,12,0,0,19,-30.6138888888889,-71.5088888888889,"WGS84"
"Coquimbo","Limarí","Ovalle","2002-2003","LLANOS DEL LIMARI","2003-01-29","15:00",1245,"Sin alerta","No definido","No definida",0,0,0,1,0,0,35,64,0,0,100,-30.6441666666667,-71.3427777777778,"WGS84"
"Coquimbo","Elqui","La Serena","2002-2003","ISLON","2003-01-29","18:00",305,"Sin alerta","No definido","No definida",0,0,0,0,0,0,0.5,1.5,0,0,2,-29.8708333333333,-71.2002777777778,"WGS84"
"Coquimbo","Elqui","La Serena","2002-2003","PAMPA ALTA","2003-01-30","18:30",200,"Sin alerta","No definido","No definida",0,0,0,0.25,0,0,0,0,0,0,0.25,-29.9183333333333,-71.2430555555556,"WGS84"
"Coquimbo","Limarí","Ovalle","2002-2003","LA TORRE 1","2003-01-31","16:30",250,"Sin alerta","No definido","No definida",0,0,0,0.3,0,0,0.2,0.5,0,0,1,-30.6072222222222,-71.3836111111111,"WGS84"
"Coquimbo","Choapa","Illapel","2002-2003","ASIENTO VIEJO","2003-02-01","14:00",200,"Sin alerta","No definido","No definida",0,0,0,0,0,0.3,0.3,0.4,0,0,1,-31.6216666666667,-71.1455555555556,"WGS84"
"Coquimbo","Limarí","Ovalle","2002-2003","LATORRE  2","2003-02-02","13:30",162,"Sin alerta","No definido","No definida",0,0,0,0,0,0,0.5,1.5,0,0,2,-30.6163888888889,-71.3733333333333,"WGS84"
"Coquimbo","Limarí","Ovalle","2002-2003","HACIENDA LATORRE","2003-02-03","10:00",251,"Sin alerta","No definido","No definida",0,0,0,1.4,0,0,0,0,0,0.1,1.5,-30.6075,-71.3730555555556,"WGS84"
"Coquimbo","Choapa","Los Vilos","2002-2003","PICHIDANGUI","2003-02-08","14:30",135,"Sin alerta","No definido","No definida",0,0,0,0,0,0,0.1,0.4,0,0,0.5,-32.1380555555556,-71.5177777777778,"WGS84"
"Coquimbo","Elqui","La Serena","2002-2003","CERRO GRANDE","2003-02-11","18:06",179,"Sin alerta","No definido","No definida",0,0,0,0,0,0,1,2,0,0,3,-29.9430555555556,-71.1913888888889,"WGS84"
"Coquimbo","Limarí","Ovalle","2002-2003","BARRAZA BAJO","2003-02-14","12:00",343,"Sin alerta","No definido","No definida",0,0,0,0,0,0,0,0,0,9,9,-30.6425,-71.4363888888889,"WGS84"
"Coquimbo","Choapa","Los Vilos","2002-2003","CARACAS","2003-02-15","12:30",160,"Sin alerta","No definido","No definida",0,0,0,0,0,0,0.2,0.8,0,0,1,-31.9133333333333,-71.48,"WGS84"
"Coquimbo","Choapa","Los Vilos","2002-2003","RABADILLA","2003-02-19","15:05",70,"Sin alerta","No definido","No definida",0,0,0,0,0,0,0,0.2,0,0,0.2,-31.9133333333333,-71.4694444444444,"WGS84"
"Coquimbo","Choapa","Los Vilos","2002-2003","LA MOSTAZA","2003-02-19","16:10",150,"Sin alerta","No definido","No definida",0,0,0,0,0,0,0.5,1,0,0,1.5,-31.8694444444444,-71.4152777777778,"WGS84"
"Coquimbo","Limarí","Ovalle","2002-2003","EL FRUTO","2003-02-20","14:30",75,"Sin alerta","No definido","No definida",0,0,0,0,3,0,0,2,0,0,5,-30.7625,-71.2725,"WGS84"
"Coquimbo","Choapa","Los Vilos","2002-2003","POLCURA","2003-02-23","13:00",240,"Sin alerta","No definido","No definida",0,0,0,0,0,6.75,11.25,27,0,0,45,-31.9494444444444,-70.9627777777778,"WGS84"
"Coquimbo","Choapa","Illapel","2002-2003","PAJARITOS","2003-02-26","14:00",140,"Sin alerta","No definido","No definida",0,0,0,0,0.5,0,1.5,3,0,0,5,-31.6302777777778,-71.1666666666667,"WGS84"
"Coquimbo","Elqui","La Serena","2002-2003","CERRO CUTUM","2003-05-02","13:30",170,"Sin alerta","No definido","No definida",0,0,0,0,0,0,10,90,0,0,100,-29.9722222222222,-71.0572222222222,"WGS84"
"Coquimbo","Limarí","Ovalle","2002-2003","TALINAY BAJO","2003-05-15","13:00",60,"Sin alerta","No definido","No definida",0,0,0,0,0,0,5,40,0,0,45,-30.785,-71.6808333333333,"WGS84"
"Valparaíso","Marga Marga","Olmué","2002-2003","EL ALMENDRAL","2002-08-11","13:10",470,"Sin alerta","No definido","Incendios de causa desconocida",0,0,0,0,0,0,6,6,0,0,12,-33.0925,-71.1055555555556,"WGS84"
"Valparaíso","Marga Marga","Olmué","2002-2003","EL ALMENDRAL","2002-08-11","13:10",470,"Sin alerta","No definido","Incendios de causa desconocida",0,0,0,0,0,0,4,0,0,0,4,-33.0833333333333,-71.1052777777778,"WGS84"
"Valparaíso","Quillota","Hijuelas","2002-2003","OASIS LA CAMPANA","2002-08-13","14:30",390,"Sin alerta","No definido","Incendios de causa desconocida",0,0,0,0,0,0,3,1,0,0,4,-32.8944444444444,-71.0794444444444,"WGS84"
"Valparaíso","Valparaíso","Valparaíso","2002-2003","FDO PAJONAL","2002-10-04","12:00",540,"Sin alerta","No definido","Incendios de causa desconocida",0,0,0,5,0,0,1,0,0,0,6,-33.0738888888889,-71.6083333333333,"WGS84"
"Valparaíso","Valparaíso","Valparaíso","2002-2003","FDO PAJONAL","2002-10-09","16:50",43,"Sin alerta","No definido","Incendios intencionales",0,0,0,0.01,0,0,0,0,0,0,0.01,-33.0741666666667,-71.5977777777778,"WGS84"
"Valparaíso","Valparaíso","Valparaíso","2002-2003","PLACILLA","2002-10-10","17:30",17,"Sin alerta","No definido","Incendios intencionales",0,0,0,0,0,0,0.01,0,0,0,0.01,-33.1016666666667,-71.5663888888889,"WGS84"
"Valparaíso","Valparaíso","Valparaíso","2002-2003","FDO LAS MERCEDEZ","2002-10-12","20:50",26,"Sin alerta","No definido","Incendios intencionales",0,0,0,0,0,0,0.01,0,0,0,0.01,-33.0741666666667,-71.5869444444444,"WGS84"
"Valparaíso","Valparaíso","Valparaíso","2002-2003","RODELILLO","2002-10-13","01:31",14,"Sin alerta","No definido","Incendios de causa desconocida",0,0,0,0,0,0,0,0.01,0,0,0.01,-33.0563888888889,-71.5758333333333,"WGS84"
"Valparaíso","Valparaíso","Valparaíso","2002-2003","RODELILLO","2002-10-13","01:49",11,"Sin alerta","No definido","Incendios de causa desconocida",0,0,0,0,0,0,0,0.02,0,0,0.02,-33.0563888888889,-71.5758333333333,"WGS84"
"Valparaíso","Valparaíso","Valparaíso","2002-2003","FDO PAJONAL","2002-10-15","15:30",142,"Sin alerta","No definido","Incendios de causa desconocida",0,0,0,0.5,0,0,0,0,0,0,0.5,-33.0741666666667,-71.5977777777778,"WGS84"
"Valparaíso","Valparaíso","Valparaíso","2002-2003","LAGUNA VERDE","2002-10-16","13:05",55,"Sin alerta","No definido","Incendios de causa desconocida",0,0,0,0.02,0,0,0,0,0,0,0.02,-33.1172222222222,-71.6847222222222,"WGS84"
"Valparaíso","Valparaíso","Valparaíso","2002-2003","PLAYA ANCHA","2002-10-16","13:16",49,"Sin alerta","No definido","Incendios de causa desconocida",0,0,0,0,0,0,0.15,0,0,0,0.15,-33.0641666666667,-71.6402777777778,"WGS84"
"Valparaíso","Valparaíso","Valparaíso","2002-2003","CERRO LA CRUZ","2002-10-16","17:43",187,"Sin alerta","No definido","Incendios de causa desconocida",0,0,0,0,0,0,1,0,0,0,1,-33.0683333333333,-71.5872222222222,"WGS84"
"Valparaíso","Valparaíso","Valparaíso","2002-2003","CERRO LA CRUZ","2002-10-16","21:35",155,"Sin alerta","No definido","Incendios de causa desconocida",0,0,0,0,0,0,0.4,0,0,0,0.4,-33.0830555555556,-71.5980555555556,"WGS84"
"Valparaíso","Valparaíso","Casablanca","2002-2003","LO OROZCO","2002-10-20","16:25",815,"Sin alerta","No definido","Tránsito de personasvehículos o aeronaves",0,0,0,0,0,1,1,2,0,0,4,-33.2216666666667,-71.4305555555556,"WGS84"
"Valparaíso","San Antonio","San Antonio","2002-2003","FUNDO MIRAMAR","2002-11-02","16:06",44,"Sin alerta","No definido","Incendios intencionales",0,0,0,0,0,0,0,0.01,0,0,0.01,-33.5791666666667,-71.5911111111111,"WGS84"
"Valparaíso","Marga Marga","Quilpué","2002-2003","ESTERO VIEJO","2002-11-03","14:38",68,"Sin alerta","No definido","Tránsito de personasvehículos o aeronaves",0,0,0,0,0,0,0,0.2,0,0,0.2,-33.06,-71.4044444444445,"WGS84"
"Valparaíso","Valparaíso","Concón","2002-2003","VILLA PRIMAVERA","2002-11-03","15:00",30,"Sin alerta","No definido","Actividades recreativas",0.02,0,0,0,0,0,0.02,0.04,0,0,0.08,-32.9133333333333,-71.5180555555555,"WGS84"
"Valparaíso","Marga Marga","Villa Alemana","2002-2003","POBLACION WILSON","2002-11-03","15:57",41,"Sin alerta","No definido","Actividades recreativas",0,0,0,0,0,0,0,0.1,0,0,0.1,-33.0430555555556,-71.34,"WGS84"
"Valparaíso","Valparaíso","Viña del Mar","2002-2003","GRANADILLA","2002-11-03","17:18",51,"Sin alerta","No definido","Tránsito de personasvehículos o aeronaves",0,0,0,0,0,0,0.1,0.1,0,0,0.2,-33.0033333333333,-71.5313888888889,"WGS84"
"Valparaíso","Valparaíso","Valparaíso","2002-2003","CERRO YUNGAY","2002-11-03","17:29",74,"Sin alerta","No definido","Tránsito de personasvehículos o aeronaves",0,0,0,0.01,0,0,0,0.01,0,0,0.02,-33.0552777777778,-71.64,"WGS84"
"Valparaíso","San Antonio","San Antonio","2002-2003","POTRERILLOS","2002-11-03","14:40",100,"Sin alerta","No definido","Actividades recreativas",0,0,0,0.01,0,0,0,0.02,0,0,0.03,-33.5613888888889,-71.58,"WGS84"
"Valparaíso","San Antonio","San Antonio","2002-2003","FUNDO MIRAMAR","2002-11-03","16:15",75,"Sin alerta","No definido","Actividades recreativas",0,0,0,0.01,0,0,0,0.01,0,0,0.02,-33.5794444444444,-71.5805555555555,"WGS84"
"Valparaíso","San Antonio","San Antonio","2002-2003","QUEBRADA HUALLIPEN","2002-11-03","17:02",52,"Sin alerta","No definido","Actividades recreativas",0,0,0,0,0,0,0,0.5,0,0,0.5,-33.5788888888889,-71.6019444444444,"WGS84"
"Valparaíso","Valparaíso","Valparaíso","2002-2003","LA BALLICA","2002-11-03","19:43",1097,"Sin alerta","No definido","Actividades recreativas",0.04,0,0,0,0,0,0,0,0,0,0.04,-33.1388888888889,-71.5138888888889,"WGS84"
"Valparaíso","Marga Marga","Villa Alemana","2002-2003","HUANHUALI","2002-11-04","15:50",21,"Sin alerta","No definido","Incendios intencionales",0,0,0,0,0,0,0.05,0,0,0,0.05,-33.0608333333333,-71.3616666666667,"WGS84"
"Valparaíso","Marga Marga","Villa Alemana","2002-2003","CAMINO TRONCAL","2002-11-06","15:53",28,"Sin alerta","No definido","Tránsito de personasvehículos o aeronaves",0,0,0,0,0,0,0.01,0.02,0,0,0.03,-33.0436111111111,-71.3186111111111,"WGS84"
"Valparaíso","Marga Marga","Villa Alemana","2002-2003","POBLACION WILSON","2002-11-06","16:44",62,"Sin alerta","No definido","Actividades recreativas",0,0,0,0,0,0,0,0.05,0,0,0.05,-33.0430555555556,-71.34,"WGS84"
"Valparaíso","Marga Marga","Villa Alemana","2002-2003","FORESTA EL CARMEN","2002-11-07","14:35",29,"Sin alerta","No definido","Tránsito de personasvehículos o aeronaves",0,0,0,0,0,0,0,0.2,0,0,0.2,-33.0433333333333,-71.3291666666667,"WGS84"
"Valparaíso","San Antonio","El Tabo","2002-2003","PIDRA EL ELEFANTE","2002-11-08","15:30",1275,"Sin alerta","No definido","Actividades recreativas",0.5,0,0,0,0,0,2.5,0.6,0,0,3.6,-33.4427777777778,-71.6408333333333,"WGS84"
"Valparaíso","Marga Marga","Villa Alemana","2002-2003","POBLACION WILSON","2002-11-08","17:32",46,"Sin alerta","No definido","Actividades recreativas",0,0,0,0,0,0,0,0.25,0,0,0.25,-33.0338888888889,-71.3502777777778,"WGS84"
"Valparaíso","Valparaíso","Casablanca","2002-2003","SANTUARIO LO VASQUEZ","2002-11-09","15:51",249,"Sin alerta","No definido","Actividades recreativas",0,0,0,0,0,15,15,20,0,0,50,-33.2488888888889,-71.4311111111111,"WGS84"
"Valparaíso","San Antonio","El Quisco","2002-2003","ISLA NEGRA","2002-11-09","17:05",115,"Sin alerta","No definido","Incendios de causa desconocida",0,0,0,0.05,0,0,0,0,0,0,0.05,-33.4241666666667,-71.6725,"WGS84"
"Valparaíso","Marga Marga","Villa Alemana","2002-2003","SECTOR SUR","2002-11-09","12:48",33,"Sin alerta","No definido","Actividades recreativas",0,0,0,0,0,0,0,0.02,0,0,0.02,-33.0608333333333,-71.3616666666667,"WGS84"
"Valparaíso","Marga Marga","Villa Alemana","2002-2003","TRONCOS VIEJOS","2002-11-09","20:14",61,"Sin alerta","No definido","Actividades recreativas",0,0,0,0,0,0,0.5,1,0,0,1.5,-33.0183333333333,-71.3825,"WGS84"
"Valparaíso","Marga Marga","Quilpué","2002-2003","EL BELLOTO","2002-11-10","11:14",126,"Sin alerta","No definido","Tránsito de personasvehículos o aeronaves",0,0,0,0,0,0,0.1,0.2,0,0,0.3,-33.015,-71.3927777777778,"WGS84"
"Valparaíso","Valparaíso","Viña del Mar","2002-2003","SAUSALITO","2002-11-10","15:04",79,"Sin alerta","No definido","Tránsito de personasvehículos o aeronaves",0,0,0,0.05,0,0,0,0.05,0,0,0.1,-33.0122222222222,-71.5316666666667,"WGS84"
"Valparaíso","Marga Marga","Quilpué","2002-2003","BELLOTO NORTE","2002-11-10","14:59",248,"Sin alerta","No definido","Actividades recreativas",0,0,0,0,0,0,4,4,0,0,8,-33.0236111111111,-71.4141666666667,"WGS84"
"Valparaíso","Marga Marga","Villa Alemana","2002-2003","EL CARMEN","2002-11-10","17:00",173,"Sin alerta","No definido","Actividades recreativas",0,0,0,2,0,0,1,3,0,0,6,-33.0433333333333,-71.3291666666667,"WGS84"
"Valparaíso","Marga Marga","Villa Alemana","2002-2003","NORTE DE VILLA ALEMANA","2002-11-10","17:34",101,"Sin alerta","No definido","Actividades recreativas",0,0,0,0,0,0,1.4,2.1,0,0,3.5,-33.0247222222222,-71.3608333333333,"WGS84"
"Valparaíso","Marga Marga","Villa Alemana","2002-2003","PEÑABLANCA","2002-11-10","14:27",36,"Sin alerta","No definido","Actividades recreativas",0,0,0,0,0,0,0,0.07,0,0,0.07,-33.0336111111111,-71.3611111111111,"WGS84"
"Valparaíso","Marga Marga","Villa Alemana","2002-2003","FINAL LA TORRE","2002-11-10","17:04",225,"Sin alerta","No definido","Actividades recreativas",0,0,0,0,0,0,0.1,0.2,0,0,0.3,-33.0336111111111,-71.3716666666667,"WGS84"
"Valparaíso","Marga Marga","Villa Alemana","2002-2003","HUANHUALI","2002-11-10","18:35",29,"Sin alerta","No definido","Actividades recreativas",0,0,0,0,0,0,0,0.03,0,0,0.03,-33.0694444444444,-71.3833333333333,"WGS84"
"Valparaíso","Valparaíso","Viña del Mar","2002-2003","GLORIAS NAVALES","2002-11-11","14:20",57,"Sin alerta","No definido","Quema de desechos",0,0,0,0,0,0,0,0.01,0,0,0.01,-32.9858333333333,-71.4988888888889,"WGS84"
"Valparaíso","Valparaíso","Viña del Mar","2002-2003","REÑACA ALTO","2002-11-11","15:27",64,"Sin alerta","No definido","Quema de desechos",0,0,0,0,0,0,0.03,0.02,0,0,0.05,-32.9858333333333,-71.4988888888889,"WGS84"
"Valparaíso","Marga Marga","Villa Alemana","2002-2003","POBLACION WILSON","2002-11-11","15:40",64,"Sin alerta","No definido","Actividades recreativas",0,0,0,0,0,0,0.05,0.15,0,0,0.2,-33.0430555555556,-71.34,"WGS84"
"Valparaíso","San Antonio","San Antonio","2002-2003","FUNDO MIRAMAR","2002-11-11","18:50",85,"Sin alerta","No definido","Incendios intencionales",0,0,0,0.1,0,0,0.1,0.1,0,0,0.3,-33.5794444444444,-71.5805555555555,"WGS84"
"Valparaíso","Valparaíso","Viña del Mar","2002-2003","SIETE HERMANAS","2002-11-12","11:06",61,"Sin alerta","No definido","Tránsito de personasvehículos o aeronaves",0,0,0,0,0,0,0.01,0.01,0,0,0.02,-33.0486111111111,-71.5219444444444,"WGS84"
"Valparaíso","Marga Marga","Villa Alemana","2002-2003","POBLACION WILSON","2002-11-12","16:55",70,"Sin alerta","No definido","Tránsito de personasvehículos o aeronaves",0,0,0,0,0,0,0.03,0.05,0,0,0.08,-33.0430555555556,-71.34,"WGS84"
"Valparaíso","Valparaíso","Valparaíso","2002-2003","RAPA NUI","2002-11-12","17:05",31,"Sin alerta","No definido","Tránsito de personasvehículos o aeronaves",0,0,0,0.01,0,0,0,0,0,0,0.01,-33.0655555555556,-71.5761111111111,"WGS84"
"Valparaíso","Valparaíso","Valparaíso","2002-2003","EL PLATEADO","2002-11-12","17:29",39,"Sin alerta","No definido","Tránsito de personasvehículos o aeronaves",0,0,0,0,0,0,0,0.01,0,0,0.01,-33.0822222222222,-71.6408333333333,"WGS84"
"Valparaíso","Valparaíso","Valparaíso","2002-2003","CERRO ESPERANZA","2002-11-12","17:56",79,"Sin alerta","No definido","Actividades recreativas",0,0,0,0,0,0,0.01,0.02,0,0,0.03,-33.0383333333333,-71.5861111111111,"WGS84"
"Valparaíso","Marga Marga","Villa Alemana","2002-2003","POBLACION SAN JOSE","2002-11-12","15:37",34,"Sin alerta","No definido","Actividades recreativas",0,0,0,0,0,0,0,0.01,0,0,0.01,-33.0602777777778,-71.3830555555556,"WGS84"
"Valparaíso","Valparaíso","Viña del Mar","2002-2003","REÑACA ALTO","2002-11-13","12:45",85,"Sin alerta","No definido","Quema de desechos",0,0,0,0.1,0,0,0,0.1,0,0,0.2,-32.9952777777778,-71.4777777777778,"WGS84"
"Valparaíso","Valparaíso","Viña del Mar","2002-2003","LAJARILLA","2002-11-13","12:57",122,"Sin alerta","No definido","Quema de desechos",0,0,0,0,0,0,0.4,0.5,0,0,0.9,-32.9769444444444,-71.4986111111111,"WGS84"
"Valparaíso","Valparaíso","Valparaíso","2002-2003","VILLA RAPA NUI","2002-11-13","13:41",103,"Sin alerta","No definido","Tránsito de personasvehículos o aeronaves",0,0,0,0.6,0,0,0,0,0,0,0.6,-33.0475,-71.5755555555556,"WGS84"
"Valparaíso","Valparaíso","Concón","2002-2003","RANCHO AZUL","2002-11-13","15:17",58,"Sin alerta","No definido","Quema de desechos",0,0,0,0,0,0,0,0.02,0,0,0.02,-32.9769444444444,-71.4986111111111,"WGS84"
"Valparaíso","Marga Marga","Villa Alemana","2002-2003","POBLACION LOS PROFESORES","2002-11-13","15:18",195,"Sin alerta","No definido","Actividades recreativas",0,0,0,1,0,0,2,3,0,0,6,-33.0336111111111,-71.3716666666667,"WGS84"
"Valparaíso","Valparaíso","Viña del Mar","2002-2003","REÑACA ALTO","2002-11-13","15:31",89,"Sin alerta","No definido","Actividades recreativas",0,0,0,0,0,0,0,0.07,0,0,0.07,-32.9858333333333,-71.4988888888889,"WGS84"
"Valparaíso","Marga Marga","Villa Alemana","2002-2003","POBLACION WILSON","2002-11-14","15:31",74,"Sin alerta","No definido","Actividades recreativas",0,0,0,0,0,0,0,0.23,0,0,0.23,-33.0341666666667,-71.3397222222222,"WGS84"
"Valparaíso","Valparaíso","Valparaíso","2002-2003","LA PIRAMIDE","2002-11-14","16:51",52,"Sin alerta","No definido","Actividades recreativas",0,0,0,0,0,0,0,0.02,0,0,0.02,-33.0647222222222,-71.6188888888889,"WGS84"
"Valparaíso","Valparaíso","Casablanca","2002-2003","FDO EL REFUGIO","2002-11-14","17:20",94,"Sin alerta","No definido","Actividades recreativas",0,0,0,0,0,0,0.3,0.7,0,0,1,-33.3216666666667,-71.3902777777778,"WGS84"
"Valparaíso","Marga Marga","Villa Alemana","2002-2003","EL ROCIO","2002-11-14","00:39",15,"Sin alerta","No definido","Actividades recreativas",0,0,0,0,0,0,0,0.01,0,0,0.01,-33.0511111111111,-71.3936111111111,"WGS84"
"Valparaíso","Marga Marga","Villa Alemana","2002-2003","PEÑABLANCA","2002-11-14","15:16",19,"Sin alerta","No definido","Tránsito de personasvehículos o aeronaves",0,0,0,0,0,0,0,0.01,0,0,0.01,-33.0336111111111,-71.3611111111111,"WGS84"
"Valparaíso","Marga Marga","Villa Alemana","2002-2003","POBLACION LAS VEGAS","2002-11-14","21:28",27,"Sin alerta","No definido","Actividades recreativas",0,0,0,0,0,0,0,0.03,0,0,0.03,-33.0330555555556,-71.3930555555555,"WGS84"
"Valparaíso","Valparaíso","Valparaíso","2002-2003","ALTO DEL PUERTO","2002-11-15","12:38",192,"Sin alerta","No definido","Tránsito de personasvehículos o aeronaves",0,0,0,1,0,0,0,0,0,0,1,-33.1011111111111,-71.5986111111111,"WGS84"
"Valparaíso","Valparaíso","Valparaíso","2002-2003","CERRO LOS PLACERES","2002-11-16","15:10",45,"Sin alerta","No definido","Actividades recreativas",0,0,0,0,0,0,0.02,0.1,0,0,0.12,-33.0475,-71.5755555555556,"WGS84"
"Valparaíso","San Antonio","San Antonio","2002-2003","VISTA HERMOSA","2002-11-16","15:25",45,"Sin alerta","No definido","Tránsito de personasvehículos o aeronaves",0,0,0,0,0,0,0,0.01,0,0,0.01,-33.57,-71.6016666666667,"WGS84"
"Valparaíso","Marga Marga","Villa Alemana","2002-2003","PARADERO 12","2002-11-16","12:17",21,"Sin alerta","No definido","Tránsito de personasvehículos o aeronaves",0,0,0,0,0,0,0,0.01,0,0,0.01,-33.0422222222222,-71.3933333333333,"WGS84"
"Valparaíso","Marga Marga","Villa Alemana","2002-2003","PARADERO 10","2002-11-16","12:44",15,"Sin alerta","No definido","Actividades recreativas",0,0,0,0,0,0,0,0.03,0,0,0.03,-33.0422222222222,-71.3933333333333,"WGS84"
"Valparaíso","Marga Marga","Villa Alemana","2002-2003","POBLACUION JHON KENNEDY","2002-11-16","23:30",14,"Sin alerta","No definido","Actividades recreativas",0,0,0,0,0,0,0.01,0.01,0,0,0.02,-33.0511111111111,-71.3936111111111,"WGS84"
"Valparaíso","Valparaíso","Valparaíso","2002-2003","PLAYA ANCHA","2002-11-17","18:04",76,"Sin alerta","No definido","Actividades recreativas",0,0,0,0,0,0,0.1,0.2,0,0,0.3,-33.055,-71.6508333333333,"WGS84"
"Valparaíso","San Antonio","San Antonio","2002-2003","FUNDO MIRAMAR","2002-11-17","18:55",45,"Sin alerta","No definido","Tránsito de personasvehículos o aeronaves",0,0,0,0,0,0,0,0.01,0,0,0.01,-33.5794444444444,-71.5805555555555,"WGS84"
"Valparaíso","San Antonio","San Antonio","2002-2003","PELANCURA","2002-11-17","19:50",55,"Sin alerta","No definido","Tránsito de personasvehículos o aeronaves",0,0,0,0,0,0,0,0.02,0,0,0.02,-33.5794444444444,-71.5805555555555,"WGS84"
"Valparaíso","Marga Marga","Villa Alemana","2002-2003","POBLACION LAS VEGAS","2002-11-17","11:22",64,"Sin alerta","No definido","Actividades recreativas",0,0,0,0,0,0,0,0.65,0,0,0.65,-33.0241666666667,-71.3927777777778,"WGS84"
"Valparaíso","Valparaíso","Viña del Mar","2002-2003","SEXTO SECTOR GOMEZ CARREÑO","2002-11-18","12:26",62,"Sin alerta","No definido","Tránsito de personasvehículos o aeronaves",0,0,0,0,0,0,0.03,0.07,0,0,0.1,-32.9944444444444,-71.5205555555556,"WGS84"
"Valparaíso","Valparaíso","Viña del Mar","2002-2003","GRANADILLA","2002-11-18","14:16",65,"Sin alerta","No definido","Tránsito de personasvehículos o aeronaves",0,0,0,0,0,0,0,0.02,0,0,0.02,-33.0311111111111,-71.5,"WGS84"
"Valparaíso","Marga Marga","Quilpué","2002-2003","BELLOTO NORTE","2002-11-18","15:09",107,"Sin alerta","No definido","Quema de desechos",0,0,0,0,0,0,0.02,0.03,0,0,0.05,-33.0236111111111,-71.4141666666667,"WGS84"
"Valparaíso","Marga Marga","Quilpué","2002-2003","LOS MOLLES","2002-11-18","18:01",84,"Sin alerta","No definido","Tránsito de personasvehículos o aeronaves",0,0,0,0,0,0,0.1,0.4,0,0,0.5,-33.1055555555556,-71.3736111111111,"WGS84"
"Valparaíso","Marga Marga","Quilpué","2002-2003","EL REBAÑO","2002-11-18","18:17",66,"Sin alerta","No definido","Actividades recreativas",0,0,0,0,0,0,0.05,0.3,0,0,0.35,-33.0313888888889,-71.4786111111111,"WGS84"
"Valparaíso","Petorca","Cabildo","2002-2003","CABILDO","2002-11-18","17:16",164,"Sin alerta","No definido","Tránsito de personasvehículos o aeronaves",0,0,0,0,0,0,0,0.5,0,0,0.5,-33.0313888888889,-71.4786111111111,"WGS84"
"Valparaíso","Marga Marga","Villa Alemana","2002-2003","PARADERO 12 1","2002-11-18","11:10",31,"Sin alerta","No definido","Actividades recreativas",0,0,0,0,0,0,0.01,0.04,0,0,0.05,-33.0422222222222,-71.3933333333333,"WGS84"
"Valparaíso","Marga Marga","Villa Alemana","2002-2003","PARADERO 12 2","2002-11-18","16:08",33,"Sin alerta","No definido","Actividades recreativas",0,0,0,0,0,0,0,0.02,0,0,0.02,-33.0422222222222,-71.3933333333333,"WGS84"
"Valparaíso","Valparaíso","Valparaíso","2002-2003","PLACILLA","2002-11-19","10:24",92,"Sin alerta","No definido","Actividades recreativas",0,0,0,0,0,0,0,0.02,0,0,0.02,-33.1288888888889,-71.5672222222222,"WGS84"
"Valparaíso","Marga Marga","Quilpué","2002-2003","BELLOTO NORTE","2002-11-19","13:56",118,"Sin alerta","No definido","Tránsito de personasvehículos o aeronaves",0,0,0,0,0,0,0.25,0.6,0,0,0.85,-33.0330555555556,-71.3930555555555,"WGS84"
"Valparaíso","Marga Marga","Villa Alemana","2002-2003","POBLACION JHON KENNEDY","2002-11-19","17:14",31,"Sin alerta","No definido","Quema de desechos",0,0,0,0,0,0,0,0.01,0,0,0.01,-33.0694444444444,-71.3727777777778,"WGS84"
"Valparaíso","Quillota","Hijuelas","2002-2003","PILA DEL VIENTO","2002-11-19","13:05",445,"Sin alerta","No definido","Tránsito de personasvehículos o aeronaves",0,0,0,1,0,0,2,5,0,0,8,-32.8308333333333,-71.0994444444444,"WGS84"
"Valparaíso","Valparaíso","Valparaíso","2002-2003","RODELILLO","2002-11-19","17:20",83,"Sin alerta","No definido","Actividades recreativas",0,0,0,0,0,0,0.05,0.4,0,0,0.45,-33.0566666666667,-71.565,"WGS84"
"Valparaíso","Valparaíso","Puchuncavi","2002-2003","FDO QUIRILLUCA","2002-11-19","18:05",1123,"Sin alerta","No definido","Tránsito de personasvehículos o aeronaves",0,0,0,0,0,0,0.5,2,0,0,2.5,-32.7075,-71.4483333333333,"WGS84"
"Valparaíso","Marga Marga","Villa Alemana","2002-2003","LAS VEGAS","2002-11-19","10:15",48,"Sin alerta","No definido","Actividades recreativas",0,0,0,0,0,0,0,0.03,0,0,0.03,-33.0241666666667,-71.3927777777778,"WGS84"
"Valparaíso","Marga Marga","Villa Alemana","2002-2003","GUMERCINDO","2002-11-19","17:20",17,"Sin alerta","No definido","Actividades recreativas",0,0,0,0,0,0,0,0.01,0,0,0.01,-33.0697222222222,-71.3619444444444,"WGS84"
"Valparaíso","Marga Marga","Villa Alemana","2002-2003","VILLA LOS ALBATROS","2002-11-19","19:05",27,"Sin alerta","No definido","Actividades recreativas",0,0,0,0,0,0,0,0.01,0,0,0.01,-33.0241666666667,-71.3927777777778,"WGS84"
"Valparaíso","Marga Marga","Villa Alemana","2002-2003","POBLACION NUEVA ESPERANZA","2002-11-19","20:20",19,"Sin alerta","No definido","Actividades recreativas",0,0,0,0,0,0,0,0.08,0,0,0.08,-33.06,-71.3938888888889,"WGS84"
"Valparaíso","Marga Marga","Villa Alemana","2002-2003","POBLACION JHON KENNEDY","2002-11-19","22:20",14,"Sin alerta","No definido","Actividades recreativas",0,0,0,0,0,0,0,0.03,0,0,0.03,-33.0511111111111,-71.3936111111111,"WGS84"
"Valparaíso","Valparaíso","Concón","2002-2003","RPC","2002-11-20","11:19",281,"Sin alerta","No definido","Tránsito de personasvehículos o aeronaves",0,0,0,0,0,0,0.5,0.3,0,0,0.8,-32.9322222222222,-71.4758333333333,"WGS84"
"Valparaíso","Marga Marga","Limache","2002-2003","LOS LAURELES","2002-11-20","11:27",153,"Sin alerta","No definido","Tránsito de personasvehículos o aeronaves",0,0,0,0,0,0,0.1,0.3,0,0,0.4,-32.9252777777778,-71.3688888888889,"WGS84"
"Valparaíso","Quillota","Quillota","2002-2003","EL MAUCO","2002-11-20","11:30",570,"Sin alerta","No definido","Tránsito de personasvehículos o aeronaves",0,0,0,0,0,379.31,214.52,271.64,0,0,865.47,-32.9061111111111,-71.4325,"WGS84"
"Valparaíso","Marga Marga","Villa Alemana","2002-2003","EL BURRIQUERO","2002-11-20","13:18",1422,"Sin alerta","No definido","Tránsito de personasvehículos o aeronaves",0,0,0,0,0,20,52,90,0,0,162,-33.0341666666667,-71.3397222222222,"WGS84"
"Valparaíso","San Antonio","El Tabo","2002-2003","LAS PATAGUAS","2002-11-20","12:50",259,"Sin alerta","No definido","Faenas agrícolas y pecuarias",0,0,0,1,0,0,0.3,1.2,0,0,2.5,-33.4994444444444,-71.5241666666667,"WGS84"
"Valparaíso","San Antonio","Cartagena","2002-2003","ALTO SAN SEBASTIAN","2002-11-20","16:55",70,"Sin alerta","No definido","Actividades recreativas",0,0,0,0.1,0,0,0,0.1,0,0,0.2,-33.5069444444444,-71.5891666666667,"WGS84"
"Valparaíso","San Antonio","El Quisco","2002-2003","FUNDO MAQUEGUANO","2002-11-20","17:00",135,"Sin alerta","No definido","Incendios intencionales",0,0,0.02,0,0,0,0,0.04,0,0,0.06,-33.4241666666667,-71.6725,"WGS84"
"Valparaíso","Marga Marga","Villa Alemana","2002-2003","POBLACION LAS VEGAS","2002-11-20","17:03",49,"Sin alerta","No definido","Actividades recreativas",0,0,0,0,0,0,0.1,0.4,0,0,0.5,-33.0422222222222,-71.3933333333333,"WGS84"
"Valparaíso","Marga Marga","Villa Alemana","2002-2003","PARQUE DEL SENDERO","2002-11-20","17:30",55,"Sin alerta","No definido","Tránsito de personasvehículos o aeronaves",0,0,0,0,0,0,0,2,0,0,2,-33.0788888888889,-71.3622222222222,"WGS84"
"Valparaíso","Quillota","Quillota","2002-2003","LO ROJAS","2002-11-21","16:14",166,"Sin alerta","No definido","Tránsito de personasvehículos o aeronaves",0,0,0,0,0.1,0,0.4,0.5,0,0,1,-32.8097222222222,-71.2802777777778,"WGS84"
"Valparaíso","San Antonio","San Antonio","2002-2003","PELANCURA","2002-11-21","18:15",72,"Sin alerta","No definido","Tránsito de personasvehículos o aeronaves",0,0,0,0,0,0,0,0.04,0,0,0.04,-33.5694444444444,-71.6233333333333,"WGS84"
"Valparaíso","Valparaíso","Valparaíso","2002-2003","PLACILLA","2002-11-22","13:12",97,"Sin alerta","No definido","Tránsito de personasvehículos o aeronaves",0,0,0,0.1,0,0,0.07,0.03,0,0,0.2,-33.1016666666667,-71.5772222222222,"WGS84"
"Valparaíso","Valparaíso","Valparaíso","2002-2003","POBLACION LA ISLA","2002-11-22","14:50",73,"Sin alerta","No definido","Tránsito de personasvehículos o aeronaves",0,0,0,0,0,0,0.01,0.02,0,0,0.03,-33.0741666666667,-71.5869444444444,"WGS84"
"Valparaíso","Valparaíso","Valparaíso","2002-2003","PLACILLA 2","2002-11-22","15:47",92,"Sin alerta","No definido","Tránsito de personasvehículos o aeronaves",0,0,0,0.01,0,0,0.01,0.03,0,0,0.05,-33.1016666666667,-71.5663888888889,"WGS84"
"Valparaíso","Valparaíso","Casablanca","2002-2003","LA ROTUNDA","2002-11-23","12:00",111,"Sin alerta","No definido","Incendios intencionales",0,0,0,0,0,0.08,0,0.12,0,0,0.2,-33.2669444444444,-71.4208333333333,"WGS84"
"Valparaíso","Marga Marga","Villa Alemana","2002-2003","VILLA ALEMANA NORTE","2002-11-23","15:45",138,"Sin alerta","No definido","Actividades recreativas",0,0,0,0,0,0.5,1.5,4,0,0,6,-33.0183333333333,-71.3825,"WGS84"
"Valparaíso","Marga Marga","Quilpué","2002-2003","QUILPUE","2002-11-24","15:58",67,"Sin alerta","No definido","Quema de desechos",0,0,0,0,0,0,0.02,0.06,0,0,0.08,-33.0586111111111,-71.4688888888889,"WGS84"
"Valparaíso","Marga Marga","Villa Alemana","2002-2003","CUESTA LOS QUILLAYES","2002-11-24","18:43",87,"Sin alerta","No definido","Tránsito de personasvehículos o aeronaves",0,0,0,0,0,0,0.02,0.04,0,0,0.06,-33.1513888888889,-71.3427777777778,"WGS84"
"Valparaíso","Valparaíso","Viña del Mar","2002-2003","RHONA","2002-11-26","12:10",48,"Sin alerta","No definido","Actividades recreativas",0,0,0,0,0,0,0,0.1,0,0,0.1,-33.0572222222222,-71.5436111111111,"WGS84"
"Valparaíso","Valparaíso","Valparaíso","2002-2003","NUEVO PLACILLA","2002-11-26","13:06",114,"Sin alerta","No definido","Tránsito de personasvehículos o aeronaves",0,0,0,0.13,0,0,0,0,0,0,0.13,-33.1202777777778,-71.5455555555556,"WGS84"
"Valparaíso","Valparaíso","Valparaíso","2002-2003","TIERRAS ROJAS","2002-11-26","15:48",221,"Sin alerta","No definido","Quema de desechos",0,0,0,0,0,0,0,0.03,0,0,0.03,-33.0563888888889,-71.5758333333333,"WGS84"
"Valparaíso","Marga Marga","Quilpué","2002-2003","COLINAS DE ORO","2002-11-26","16:10",125,"Sin alerta","No definido","Tránsito de personasvehículos o aeronaves",0,0,0,0,0,0,0.1,0.2,0,0,0.3,-33.0772222222222,-71.4477777777778,"WGS84"
"Valparaíso","Petorca","La Ligua","2002-2003","LOS MOLLES","2002-11-26","18:16",1229,"Sin alerta","No definido","Tránsito de personasvehículos o aeronaves",0,0,0,0,0,10,20,30,0,0,60,-32.1830555555556,-71.5191666666667,"WGS84"
"Valparaíso","Valparaíso","Valparaíso","2002-2003","PEÑUELAS","2002-11-27","10:28",104,"Sin alerta","No definido","Tránsito de personasvehículos o aeronaves",0,0,0,0.01,0,0,0,0.01,0,0,0.02,-33.1561111111111,-71.5572222222222,"WGS84"
"Valparaíso","San Antonio","Cartagena","2002-2003","VISTA HERMOSA","2002-11-27","13:00",55,"Sin alerta","No definido","Incendios intencionales",0,0,0,0.2,0,0,0,0.8,0,0,1,-33.5427777777778,-71.6008333333333,"WGS84"
"Valparaíso","Marga Marga","Villa Alemana","2002-2003","LAS VEGAS","2002-11-27","13:23",133,"Sin alerta","No definido","Tránsito de personasvehículos o aeronaves",0,0,0,0,0,0,0.1,0.1,0,0,0.2,-33.0330555555556,-71.3930555555555,"WGS84"
"Valparaíso","Marga Marga","Villa Alemana","2002-2003","FUNDO SANTA GLORIA","2002-11-27","13:50",157,"Sin alerta","No definido","Quema de desechos",0,0,0,0.3,0,0,0.1,0.6,0,0,1,-33.0441666666667,-71.2755555555556,"WGS84"
"Valparaíso","Valparaíso","Viña del Mar","2002-2003","GLORIAS NAVALES","2002-11-27","15:05",104,"Sin alerta","No definido","Quema de desechos",0,0,0,0,0,0,0,0.2,0,0,0.2,-32.9858333333333,-71.4988888888889,"WGS84"
"Valparaíso","Marga Marga","Quilpué","2002-2003","EL REBAÑO","2002-11-27","16:28",107,"Sin alerta","No definido","Tránsito de personasvehículos o aeronaves",0,0,0,0,0,0,0.1,0.1,0,0,0.2,-33.0313888888889,-71.4786111111111,"WGS84"
"Valparaíso","Marga Marga","Villa Alemana","2002-2003","RECREO","2002-11-28","12:48",74,"Sin alerta","No definido","Tránsito de personasvehículos o aeronaves",0,0,0,0,0,0,0.05,0.1,0,0,0.15,-33.0694444444444,-71.3727777777778,"WGS84"
"Valparaíso","San Antonio","San Antonio","2002-2003","FUNDO LLO LLEO","2002-11-28","13:50",162,"Sin alerta","No definido","Incendios intencionales",0,0,0,0,0,0,0.4,0,0,0.2,0.6,-33.5972222222222,-71.5916666666667,"WGS84"
"Valparaíso","Valparaíso","Viña del Mar","2002-2003","REÑACA ALTO","2002-11-28","14:55",110,"Sin alerta","No definido","Quema de desechos",0,0,0,0.2,0,0,0,0.4,0,0,0.6,-32.9861111111111,-71.4880555555556,"WGS84"
"Valparaíso","Valparaíso","Valparaíso","2002-2003","LA PLANCHADA","2002-11-28","15:38",97,"Sin alerta","No definido","Tránsito de personasvehículos o aeronaves",0,0,0,0.2,0,0,0.2,0.4,0,0,0.8,-33.0472222222222,-71.5861111111111,"WGS84"
"Valparaíso","Marga Marga","Quilpué","2002-2003","BELLOTO","2002-11-28","16:46",34,"Sin alerta","No definido","Actividades recreativas",0,0,0,0,0,0,0,0.02,0,0,0.02,-33.0413888888889,-71.4255555555556,"WGS84"
"Valparaíso","Valparaíso","Viña del Mar","2002-2003","GLORIAS NAVALES","2002-11-28","17:54",39,"Sin alerta","No definido","Tránsito de personasvehículos o aeronaves",0,0,0,0,0,0,0,0.03,0,0,0.03,-32.995,-71.4991666666667,"WGS84"
"Valparaíso","Valparaíso","Valparaíso","2002-2003","POBLACION LAS PALMAS","2002-11-29","15:00",48,"Sin alerta","No definido","Quema de desechos",0,0,0,0,0,0,0,0.01,0,0,0.01,-33.0566666666667,-71.565,"WGS84"
"Valparaíso","Valparaíso","Viña del Mar","2002-2003","VILLA INDEPENDENCIA","2002-11-29","17:22",93,"Sin alerta","No definido","Tránsito de personasvehículos o aeronaves",0,0,0,0,0,0,0.2,0.5,0,0,0.7,-33.0225,-71.4786111111111,"WGS84"
"Valparaíso","Valparaíso","Valparaíso","2002-2003","EL PAJONAL","2002-11-30","09:45",243,"Sin alerta","No definido","Tránsito de personasvehículos o aeronaves",0,0,0,0.7,0,0,0,0,0,0,0.7,-33.0827777777778,-71.6086111111111,"WGS84"
"Valparaíso","San Antonio","Cartagena","2002-2003","VILLA MAR","2002-11-30","14:50",64,"Sin alerta","No definido","Tránsito de personasvehículos o aeronaves",0,0,0,0.01,0,0,0,0.01,0,0,0.02,-33.5252777777778,-71.5788888888889,"WGS84"
"Valparaíso","Marga Marga","Quilpué","2002-2003","COLINAS DE ORO","2002-12-01","15:04",119,"Sin alerta","No definido","Actividades recreativas",0,0,0,0.1,0,0,0.1,0.15,0,0,0.35,-33.0683333333333,-71.4369444444444,"WGS84"
"Valparaíso","Marga Marga","Villa Alemana","2002-2003","PALMILLA ALTA","2002-12-01","15:46",47,"Sin alerta","No definido","Actividades recreativas",0,0,0,0,0,0,0,0.06,0,0,0.06,-33.0513888888889,-71.3722222222222,"WGS84"
"Valparaíso","Marga Marga","Quilpué","2002-2003","QUILPUE","2002-12-02","14:45",54,"Sin alerta","No definido","Quema de desechos",0,0,0,0.03,0,0,0,0.05,0,0,0.08,-33.0411111111111,-71.4469444444444,"WGS84"
"Valparaíso","Marga Marga","Villa Alemana","2002-2003","LO MOSCOSO","2002-12-02","15:40",75,"Sin alerta","No definido","Tránsito de personasvehículos o aeronaves",0,0,0,0,0,0,0.4,0.6,0,0,1,-33.0763888888889,-71.48,"WGS84"
"Valparaíso","Valparaíso","Viña del Mar","2002-2003","EL OLIVAR","2002-12-02","15:56",32,"Sin alerta","No definido","Quema de desechos",0,0,0,0,0,0,0,0.03,0,0,0.03,-33.0311111111111,-71.4894444444444,"WGS84"
"Valparaíso","Marga Marga","Quilpué","2002-2003","FUNDO SAN JUAN","2002-12-02","16:43",117,"Sin alerta","No definido","Actividades recreativas",0,0,0,0.1,0,0,0.1,0,0,0,0.2,-33.0777777777778,-71.4158333333333,"WGS84"
"Valparaíso","Marga Marga","Villa Alemana","2002-2003","LAS AMERICAS","2002-12-03","22:22",74,"Sin alerta","No definido","Tránsito de personasvehículos o aeronaves",0,0,0,0.02,0,0,0.08,0.1,0,0,0.2,-33.0241666666667,-71.3927777777778,"WGS84"
"Valparaíso","Marga Marga","Villa Alemana","2002-2003","FUNDO EL MEMBRILLO","2002-12-04","13:13",87,"Sin alerta","No definido","Tránsito de personasvehículos o aeronaves",0,0,0,0,0,0,0.08,0.12,0,0,0.2,-33.0338888888889,-71.3502777777778,"WGS84"
"Valparaíso","Valparaíso","Viña del Mar","2002-2003","EXPRESOS VIÑA DEL MAR","2002-12-04","14:10",139,"Sin alerta","No definido","Actividades recreativas",0,0,0,0,0,0,0.3,0.4,0,0,0.7,-32.995,-71.4991666666667,"WGS84"
"Valparaíso","Marga Marga","Quilpué","2002-2003","VILLA OLIMPICA","2002-12-04","14:05",255,"Sin alerta","No definido","Actividades recreativas",0,0,0,0,0,0.5,1,1,0,0,2.5,-33.0677777777778,-71.4583333333333,"WGS84"
"Valparaíso","Marga Marga","Villa Alemana","2002-2003","FINAL LAS AMERICAS","2002-12-04","10:34",45,"Sin alerta","No definido","Tránsito de personasvehículos o aeronaves",0,0,0,0.03,0,0,0.07,0.1,0,0,0.2,-33.0241666666667,-71.3927777777778,"WGS84"
"Valparaíso","Valparaíso","Viña del Mar","2002-2003","LOS CORRALES","2002-12-05","10:54",171,"Sin alerta","No definido","Tránsito de personasvehículos o aeronaves",0.2,0,0,0,0,0,0.3,0.7,0,0,1.2,-32.9861111111111,-71.4880555555556,"WGS84"
"Valparaíso","San Antonio","San Antonio","2002-2003","CERRO LA VIRGEN","2002-12-05","13:55",61,"Sin alerta","No definido","Tránsito de personasvehículos o aeronaves",0,0,0,0,0,0,0,0.4,0,0,0.4,-33.5694444444444,-71.6233333333333,"WGS84"
"Valparaíso","San Antonio","Cartagena","2002-2003","CAPELLA NIA","2002-12-05","17:17",100,"Sin alerta","No definido","Actividades recreativas",0,0,0,0,0,0,0.01,0.01,0,0,0.02,-33.5436111111111,-71.5686111111111,"WGS84"
"Valparaíso","Valparaíso","Viña del Mar","2002-2003","EL OLIVAR","2002-12-05","18:40",49,"Sin alerta","No definido","Tránsito de personasvehículos o aeronaves",0,0,0,0,0,0,0.01,0.02,0,0,0.03,-33.0311111111111,-71.5,"WGS84"
"Valparaíso","Petorca","Papudo","2002-2003","AGUAS SALADAS","2002-12-06","13:03",52,"Sin alerta","No definido","Tránsito de personasvehículos o aeronaves",0,0,0,0,0,0,0,0.01,0,0,0.01,-32.5094444444444,-71.4216666666667,"WGS84"
"Valparaíso","Valparaíso","Viña del Mar","2002-2003","LOS CORRALES","2002-12-06","14:01",85,"Sin alerta","No definido","Actividades recreativas",0,0,0,0,0,0,0.15,0.15,0,0,0.3,-32.9861111111111,-71.4880555555556,"WGS84"
"Valparaíso","Valparaíso","Quintero","2002-2003","LAS GAVIOTAS","2002-12-06","16:20",107,"Sin alerta","No definido","Tránsito de personasvehículos o aeronaves",0,0,0,1,0,0,0,1.5,0,0,2.5,-32.8966666666667,-71.4536111111111,"WGS84"
"Valparaíso","Valparaíso","Valparaíso","2002-2003","PAJONAL","2002-12-06","17:03",237,"Sin alerta","No definido","Tránsito de personasvehículos o aeronaves",0,0,0,1,0,0,0,0,0,0,1,-33.0563888888889,-71.5863888888889,"WGS84"
"Valparaíso","San Antonio","San Antonio","2002-2003","FUNDO MIRAMAR 1","2002-12-06","18:20",78,"Sin alerta","No definido","Incendios intencionales",0,0,0,0.01,0,0,0,0.03,0,0,0.04,-33.5883333333333,-71.5808333333333,"WGS84"
"Valparaíso","San Antonio","San Antonio","2002-2003","MIRAMAR 2","2002-12-06","18:45",84,"Sin alerta","No definido","Incendios intencionales",0,0,0,0,0,0,0.01,0.01,0,0,0.02,-33.6063888888889,-71.5813888888889,"WGS84"
"Valparaíso","Petorca","La Ligua","2002-2003","EL PEUMO","2002-12-07","09:10",50,"Sin alerta","No definido","Tránsito de personasvehículos o aeronaves",0,0,0,0,0,0,0,0.01,0,0,0.01,-32.435,-71.2286111111111,"WGS84"
"Valparaíso","Marga Marga","Villa Alemana","2002-2003","SARGENTO ALDEA","2002-12-07","13:07",71,"Sin alerta","No definido","Tránsito de personasvehículos o aeronaves",0,0,0,0,0,0,0.05,0.25,0,0,0.3,-33.0425,-71.3719444444444,"WGS84"
"Valparaíso","San Antonio","San Antonio","2002-2003","FUNDO MIRAMAR","2002-12-07","13:19",91,"Sin alerta","No definido","Incendios intencionales",0,0,0.01,0,0,0,0,0.01,0,0,0.02,-33.5788888888889,-71.6019444444444,"WGS84"
"Valparaíso","Valparaíso","Valparaíso","2002-2003","PAJONAL","2002-12-07","15:57",169,"Sin alerta","No definido","Tránsito de personasvehículos o aeronaves",0,0,0,1,0,0,0,0,0,0,1,-33.0738888888889,-71.6083333333333,"WGS84"
"Valparaíso","Marga Marga","Villa Alemana","2002-2003","POB. JHON KENNEDY","2002-12-07","23:14",22,"Sin alerta","No definido","Actividades recreativas",0,0,0,0,0,0,0,0.2,0,0,0.2,-33.0513888888889,-71.3830555555556,"WGS84"
"Valparaíso","Marga Marga","Villa Alemana","2002-2003","POBLACION WILSON","2002-12-07","00:39",31,"Sin alerta","No definido","Actividades recreativas",0,0,0,0,0,0,0,0.01,0,0,0.01,-33.0427777777778,-71.3613888888889,"WGS84"
"Valparaíso","Valparaíso","Casablanca","2002-2003","LO VASQUEZ","2002-12-08","13:57",15,"Sin alerta","No definido","Actividades recreativas",0,0,0,0,0,0,0,0.02,0,0,0.02,-33.2488888888889,-71.4311111111111,"WGS84"
"Valparaíso","Valparaíso","Casablanca","2002-2003","LO VASQUEZ 2","2002-12-08","14:23",17,"Sin alerta","No definido","Actividades recreativas",0,0,0,0,0,0,0,0.01,0,0,0.01,-33.2488888888889,-71.4311111111111,"WGS84"
"Valparaíso","San Antonio","Cartagena","2002-2003","SANTA ELIDA","2002-12-09","14:11",65,"Sin alerta","No definido","Tránsito de personasvehículos o aeronaves",0,0,0,0,0,0,0.2,0.8,0,0,1,-33.5341666666667,-71.59,"WGS84"
"Valparaíso","Marga Marga","Villa Alemana","2002-2003","NORTE DE VILLA ALEMANA","2002-12-09","17:09",75,"Sin alerta","No definido","Tránsito de personasvehículos o aeronaves",0,0,0,0,0,0,0.01,0.04,0,0,0.05,-33.0183333333333,-71.3825,"WGS84"
"Valparaíso","Valparaíso","Viña del Mar","2002-2003","SAUSALITO","2002-12-09","18:03",58,"Sin alerta","No definido","Tránsito de personasvehículos o aeronaves",0,0,0,0,0,0,0.05,0.1,0,0,0.15,-33.0213888888889,-71.5319444444444,"WGS84"
"Valparaíso","Valparaíso","Valparaíso","2002-2003","LA VENTOLERA","2002-12-10","14:32",109,"Sin alerta","No definido","Tránsito de personasvehículos o aeronaves",0,0,0,0,0,0,0,0.03,0,0,0.03,-33.0922222222222,-71.5983333333333,"WGS84"
"Valparaíso","Valparaíso","Valparaíso","2002-2003","PARQUE INDUSTRIAL CURAUMA","2002-12-10","15:28",108,"Sin alerta","No definido","Tránsito de personasvehículos o aeronaves",0.01,0,0,0,0,0,0,0.01,0,0,0.02,-33.1380555555556,-71.5566666666667,"WGS84"
"Valparaíso","Marga Marga","Villa Alemana","2002-2003","PROGRESO AL FINAL","2002-12-10","16:31",87,"Sin alerta","No definido","Tránsito de personasvehículos o aeronaves",0,0,0,0,0,0,0,2.5,0,0,2.5,-33.0336111111111,-71.3716666666667,"WGS84"
"Valparaíso","San Antonio","San Antonio","2002-2003","CERRO LA VIRGEN","2002-12-11","12:20",103,"Sin alerta","No definido","Incendios de causa desconocida",0,0,0,0,0,0,0,3,0,0,3,-33.5697222222222,-71.6125,"WGS84"
"Valparaíso","San Antonio","San Antonio","2002-2003","QUEBRADA HOLANDA","2002-12-11","12:50",35,"Sin alerta","No definido","Actividades recreativas",0,0,0,0,0,0,0,0.09,0,0,0.09,-33.5613888888889,-71.58,"WGS84"
"Valparaíso","Marga Marga","Quilpué","2002-2003","EL REBAÑO","2002-12-11","13:40",79,"Sin alerta","No definido","Tránsito de personasvehículos o aeronaves",0,0,0,0,0,0,0.3,0.4,0,0,0.7,-33.0313888888889,-71.4786111111111,"WGS84"
"Valparaíso","Marga Marga","Villa Alemana","2002-2003","EL MIRADOR","2002-12-11","13:44",82,"Sin alerta","No definido","Tránsito de personasvehículos o aeronaves",0,0,0,0.1,0,0,0.1,0.2,0,0,0.4,-33.0611111111111,-71.3402777777778,"WGS84"
"Valparaíso","Marga Marga","Villa Alemana","2002-2003","EL MIRADOR 2","2002-12-11","13:50",87,"Sin alerta","No definido","Actividades recreativas",0,0,0,0,0,0,0.03,0.07,0,0,0.1,-33.0183333333333,-71.3825,"WGS84"
"Valparaíso","Marga Marga","Villa Alemana","2002-2003","POB. PRAT","2002-12-11","15:18",26,"Sin alerta","No definido","Actividades recreativas",0,0,0,0,0,0,0,0.01,0,0,0.01,-33.0697222222222,-71.3619444444444,"WGS84"
"Valparaíso","Valparaíso","Valparaíso","2002-2003","CURAUMILLA","2002-12-11","14:52",245,"Sin alerta","No definido","Tránsito de personasvehículos o aeronaves",0.4,0,0,0,0,0,0,0,0,0,0.4,-33.1263888888889,-71.685,"WGS84"
"Valparaíso","San Antonio","Santo Domingo","2002-2003","HUERTOS DE CHILE","2002-12-11","15:18",22,"Sin alerta","No definido","Tránsito de personasvehículos o aeronaves",0,0,0,0,0,0,0,0.01,0,0,0.01,-33.6508333333333,-71.6041666666667,"WGS84"
"Valparaíso","Marga Marga","Villa Alemana","2002-2003","VALLE EL DORADO","2002-12-11","16:16",1321,"Sin alerta","No definido","Tránsito de personasvehículos o aeronaves",0,0,0,7,0,3,10,25,0,0,45,-33.0336111111111,-71.3716666666667,"WGS84"
"Valparaíso","San Antonio","Santo Domingo","2002-2003","FUNDO SAN JORGE","2002-12-11","14:55",118,"Sin alerta","No definido","Incendios de causa desconocida",0,0,0,0,0,0,0.2,0.8,0,0,1,-33.8575,-71.6427777777778,"WGS84"
"Valparaíso","Valparaíso","Valparaíso","2002-2003","LAS CENIZAS","2002-12-11","18:02",178,"Sin alerta","No definido","Tránsito de personasvehículos o aeronaves",0,0,0,0.7,0,0,0,0.3,0,0,1,-33.0933333333333,-71.5341666666667,"WGS84"
"Valparaíso","Petorca","La Ligua","2002-2003","VILLA FUTURO","2002-12-11","16:43",42,"Sin alerta","No definido","Tránsito de personasvehículos o aeronaves",0,0,0,0,0,0,0.03,0.07,0,0,0.1,-32.435,-71.2286111111111,"WGS84"
"Valparaíso","San Antonio","El Tabo","2002-2003","EL MEMBRILLO","2002-12-12","12:10",138,"Sin alerta","No definido","Incendios intencionales",0,0,0,0,0,0,0.1,1,0,0.9,2,-33.4708333333333,-71.5988888888889,"WGS84"
"Valparaíso","Marga Marga","Quilpué","2002-2003","BELLOTO","2002-12-12","14:05",111,"Sin alerta","No definido","Actividades recreativas",0,0,0,0,0,0,0.04,0.06,0,0,0.1,-33.0419444444444,-71.4041666666667,"WGS84"
"Valparaíso","Marga Marga","Villa Alemana","2002-2003","FUNDO EL MEMBRILLO","2002-12-12","14:35",58,"Sin alerta","No definido","Tránsito de personasvehículos o aeronaves",0,0,0,0,0,0,0.1,0.2,0,0,0.3,-33.0427777777778,-71.3505555555556,"WGS84"
"Valparaíso","Quillota","La Cruz","2002-2003","POCOCHAY","2002-12-12","15:10",101,"Sin alerta","No definido","Quema de desechos",0,0,0,0,0,0.05,0.05,0.1,0,0,0.2,-32.8288888888889,-71.2166666666667,"WGS84"
"Valparaíso","Valparaíso","Valparaíso","2002-2003","LA LAGUNA","2002-12-12","16:57",53,"Sin alerta","No definido","Tránsito de personasvehículos o aeronaves",0,0,0,0,0,0,0.08,0.03,0,0,0.11,-33.0566666666667,-71.565,"WGS84"
"Valparaíso","Valparaíso","Valparaíso","2002-2003","PAJONAL","2002-12-12","17:15",138,"Sin alerta","No definido","Tránsito de personasvehículos o aeronaves",0,0,0,0.2,0,0,0,0,0,0,0.2,-33.0741666666667,-71.5977777777778,"WGS84"
"Valparaíso","Marga Marga","Limache","2002-2003","FUNDO CANEPA","2002-12-12","18:14",148,"Sin alerta","No definido","Tránsito de personasvehículos o aeronaves",0,0,0,0,0,1,1,3,0,0,5,-33.0338888888889,-71.3502777777778,"WGS84"
"Valparaíso","Marga Marga","Quilpué","2002-2003","FUNDO RECREO","2002-12-12","18:39",69,"Sin alerta","No definido","Tránsito de personasvehículos o aeronaves",0,0,0,0,0,0,0.2,0.3,0,0,0.5,-33.0783333333333,-71.3836111111111,"WGS84"
"Valparaíso","San Antonio","San Antonio","2002-2003","PELANCURA","2002-12-12","19:05",61,"Sin alerta","No definido","Incendios intencionales",0,0,0,0.2,0,0,0,0.6,0,0,0.8,-33.5602777777778,-71.6230555555556,"WGS84"
"Valparaíso","San Antonio","San Antonio","2002-2003","POBLACION BELLAVISTA","2002-12-12","19:55",17,"Sin alerta","No definido","Actividades recreativas",0,0,0,0,0,0,0,0.01,0,0,0.01,-33.5608333333333,-71.6013888888889,"WGS84"
"Valparaíso","Marga Marga","Limache","2002-2003","FORESTAL ACE","2002-12-13","10:53",264,"Sin alerta","No definido","Tránsito de personasvehículos o aeronaves",0,0,0,0.3,0,1.5,0.7,1,0,0,3.5,-33.0244444444444,-71.3713888888889,"WGS84"
"Valparaíso","Marga Marga","Villa Alemana","2002-2003","RUMIE","2002-12-13","14:52",50,"Sin alerta","No definido","Actividades recreativas",0,0,0,0,0,0,0.01,0.03,0,0,0.04,-33.0422222222222,-71.3933333333333,"WGS84"
"Valparaíso","Valparaíso","Valparaíso","2002-2003","CUESTA COLORADA","2002-12-13","15:05",63,"Sin alerta","No definido","Actividades recreativas",0,0,0,0.01,0,0,0,0.01,0,0,0.02,-33.0561111111111,-71.5972222222222,"WGS84"
"Valparaíso","Marga Marga","Quilpué","2002-2003","HIPERMERCADO EXTRA","2002-12-13","15:51",67,"Sin alerta","No definido","Tránsito de personasvehículos o aeronaves",0,0,0,0,0.02,0,0,0.04,0,0,0.06,-33.0505555555556,-71.4258333333333,"WGS84"
"Valparaíso","Valparaíso","Valparaíso","2002-2003","POBLACION BASICA","2002-12-13","17:30",61,"Sin alerta","No definido","Actividades recreativas",0,0,0,0.07,0,0,0,0.03,0,0,0.1,-33.0566666666667,-71.565,"WGS84"
"Valparaíso","Marga Marga","Villa Alemana","2002-2003","PARADERO 12","2002-12-13","19:07",68,"Sin alerta","No definido","Tránsito de personasvehículos o aeronaves",0,0,0,0,0,0,0,0.03,0,0,0.03,-33.0419444444444,-71.4041666666667,"WGS84"
"Valparaíso","Valparaíso","Viña del Mar","2002-2003","VILLA HERMOSA","2002-12-13","22:21",44,"Sin alerta","No definido","Actividades recreativas",0,0,0,0,0,0,0.01,0.01,0,0,0.02,-33.0313888888889,-71.4786111111111,"WGS84"
"Valparaíso","San Antonio","San Antonio","2002-2003","CERRO LAVIRGEN","2002-12-13","22:25",35,"Sin alerta","No definido","Incendios intencionales",0,0,0,0,0,0,0,0.03,0,0,0.03,-33.5697222222222,-71.6125,"WGS84"
"Valparaíso","Marga Marga","Quilpué","2002-2003","POBLACION ARGENTINA","2002-12-14","13:15",141,"Sin alerta","No definido","Actividades recreativas",0,0,0,0,0,0,0.3,0.2,0,0,0.5,-33.0583333333333,-71.4794444444444,"WGS84"
"Valparaíso","Valparaíso","Valparaíso","2002-2003","RODELILLO","2002-12-14","14:45",107,"Sin alerta","No definido","Quema de desechos",0,0,0,0,0,0,0.1,0.1,0,0,0.2,-33.0566666666667,-71.565,"WGS84"
"Valparaíso","Marga Marga","Limache","2002-2003","HUALCAPO","2002-12-14","16:28",142,"Sin alerta","No definido","Actividades recreativas",0,0,0,1,0,0,0,0,0,0,1,-32.8941666666667,-71.1008333333333,"WGS84"
"Valparaíso","Valparaíso","Valparaíso","2002-2003","PORVENIR ALTO","2002-12-14","16:52",79,"Sin alerta","No definido","Quema de desechos",0,0,0,0,0,0,0.05,0.05,0,0,0.1,-33.0369444444444,-71.6502777777778,"WGS84"
"Valparaíso","Marga Marga","Limache","2002-2003","PARCELA EL CONDOR","2002-12-15","14:50",125,"Sin alerta","No definido","Tránsito de personasvehículos o aeronaves",0,0,0,0,0,0,0.1,0.3,0,0,0.4,-33.0355555555556,-71.2541666666667,"WGS84"
"Valparaíso","Marga Marga","Villa Alemana","2002-2003","SAN ENRIQUE","2002-12-15","15:07",83,"Sin alerta","No definido","Actividades recreativas",0,0,0,0,0,0,0.03,0.07,0,0,0.1,-33.0605555555556,-71.3725,"WGS84"
"Valparaíso","Valparaíso","Quintero","2002-2003","LAS GAVIOTAS","2002-12-15","15:09",118,"Sin alerta","No definido","Quema de desechos",0,0,0,0,0,0,0.3,0.7,0,0,1,-32.8966666666667,-71.4536111111111,"WGS84"
"Valparaíso","Marga Marga","Limache","2002-2003","FUNDO SANTA  ENRIQUETA","2002-12-15","17:03",203,"Sin alerta","No definido","Tránsito de personasvehículos o aeronaves",0,0,0,0,0,0,1,2,0,0,3,-33.0444444444444,-71.265,"WGS84"
"Valparaíso","Valparaíso","Valparaíso","2002-2003","LA PLANTACION","2002-12-15","19:27",76,"Sin alerta","No definido","Tránsito de personasvehículos o aeronaves",0,0,0,0.01,0,0,0,0,0,0,0.01,-33.0683333333333,-71.5872222222222,"WGS84"
"Valparaíso","Petorca","Zapallar","2002-2003","FDO LA FORESTA","2002-12-15","19:50",77,"Sin alerta","No definido","Tránsito de personasvehículos o aeronaves",0,0,0,0,0,0,1,2,0,0,3,-32.5305555555556,-71.2625,"WGS84"
"Valparaíso","Valparaíso","Valparaíso","2002-2003","EL MANZANO","2002-12-15","21:30",117,"Sin alerta","No definido","Tránsito de personasvehículos o aeronaves",0,0,0,0.55,0,0,0,0,0,0,0.55,-33.0922222222222,-71.5875,"WGS84"
"Valparaíso","Valparaíso","Valparaíso","2002-2003","LA PLANTACION","2002-12-15","22:36",47,"Sin alerta","No definido","Quema de desechos",0,0,0,0.4,0,0,0,0,0,0,0.4,-33.0683333333333,-71.5872222222222,"WGS84"
"Valparaíso","Valparaíso","Viña del Mar","2002-2003","VILLA DULCE","2002-12-16","15:18",102,"Sin alerta","No definido","Quema de desechos",0,0,0,0,0,0,0.3,0.4,0,0,0.7,-33.0219444444444,-71.485,"WGS84"
"Valparaíso","Marga Marga","Villa Alemana","2002-2003","POBLACION DINAMARCA","2002-12-16","15:41",23,"Sin alerta","No definido","Tránsito de personasvehículos o aeronaves",0,0,0,0,0,0,0,0.01,0,0,0.01,-33.0694444444444,-71.3833333333333,"WGS84"
"Valparaíso","Marga Marga","Villa Alemana","2002-2003","VIÑA DEL BOSQUE","2002-12-16","16:49",41,"Sin alerta","No definido","Quema de desechos",0,0,0,0,0,0,0,0.01,0,0,0.01,-33.0330555555556,-71.3930555555555,"WGS84"
"Valparaíso","Valparaíso","Valparaíso","2002-2003","EL PAJONAL","2002-12-16","17:18",80,"Sin alerta","No definido","Actividades recreativas",0,0,0,0.3,0,0,0,0.1,0,0,0.4,-33.065,-71.5975,"WGS84"
"Valparaíso","Marga Marga","Quilpué","2002-2003","EL RETIRO","2002-12-16","18:07",42,"Sin alerta","No definido","Actividades recreativas",0,0,0,0.01,0,0,0,0.01,0,0,0.02,-33.0322222222222,-71.4358333333333,"WGS84"
"Valparaíso","Marga Marga","Quilpué","2002-2003","POBLACION ARGENTINA","2002-12-16","19:08",31,"Sin alerta","No definido","Actividades recreativas",0,0,0,0,0,0,0,0.03,0,0,0.03,-33.0497222222222,-71.4686111111111,"WGS84"
"Valparaíso","Valparaíso","Viña del Mar","2002-2003","RHONA","2002-12-16","19:10",33,"Sin alerta","No definido","Actividades recreativas",0,0,0,0,0,0,0,0.02,0,0,0.02,-33.0569444444444,-71.5544444444444,"WGS84"
"Valparaíso","Marga Marga","Quilpué","2002-2003","BELLOTO NORTE","2002-12-17","09:20",143,"Sin alerta","No definido","Tránsito de personasvehículos o aeronaves",0,0,0,0,0,0,0.3,0.4,0,0,0.7,-33.0325,-71.4252777777778,"WGS84"
"Valparaíso","San Antonio","El Quisco","2002-2003","LOS LOBOS","2002-12-17","12:55",48,"Sin alerta","No definido","Incendios intencionales",0,0,0,0.01,0,0,0,0.02,0,0,0.03,-33.3877777777778,-71.6822222222222,"WGS84"
"Valparaíso","Valparaíso","Valparaíso","2002-2003","LAS CENIZAS","2002-12-17","14:49",72,"Sin alerta","No definido","Tránsito de personasvehículos o aeronaves",0,0,0,0.03,0,0,0,0,0,0,0.03,-33.1111111111111,-71.5558333333333,"WGS84"
"Valparaíso","Valparaíso","Viña del Mar","2002-2003","VIÑA DEL MAR ALTO","2002-12-17","15:23",55,"Sin alerta","No definido","Tránsito de personasvehículos o aeronaves",0,0,0,0,0,0,0.02,0.04,0,0,0.06,-33.0388888888889,-71.5538888888889,"WGS84"
"Valparaíso","Marga Marga","Quilpué","2002-2003","VALENCIA","2002-12-17","15:53",28,"Sin alerta","No definido","Actividades recreativas",0,0,0,0,0,0,0,0.02,0,0,0.02,-33.0494444444444,-71.4791666666667,"WGS84"
"Valparaíso","San Antonio","Cartagena","2002-2003","PARCELAS CAPELLANIA","2002-12-17","16:00",41,"Sin alerta","No definido","Tránsito de personasvehículos o aeronaves",0,0,0,0,0,0,0,0.01,0,0,0.01,-33.5522222222222,-71.5797222222222,"WGS84"
"Valparaíso","Quillota","Quillota","2002-2003","LOS PARRONES","2002-12-17","16:26",100,"Sin alerta","No definido","Tránsito de personasvehículos o aeronaves",0,0,0,0,0,0,0.1,0.1,0,0,0.2,-32.8647222222222,-71.2388888888889,"WGS84"
"Valparaíso","Marga Marga","Quilpué","2002-2003","TENIENTE SERRANO","2002-12-17","17:01",63,"Sin alerta","No definido","Actividades recreativas",0,0,0,0.01,0,0,0.03,0.06,0,0,0.1,-33.0686111111111,-71.4155555555556,"WGS84"
"Valparaíso","Petorca","La Ligua","2002-2003","VILLA FUTURO","2002-12-17","15:20",95,"Sin alerta","No definido","Tránsito de personasvehículos o aeronaves",0,0,0,0,0,0,0,0.3,0,0,0.3,-32.4494444444444,-71.2605555555556,"WGS84"
"Valparaíso","Petorca","La Ligua","2002-2003","VILLA FERTIL","2002-12-17","15:55",65,"Sin alerta","No definido","Tránsito de personasvehículos o aeronaves",0,0,0,0,0,0,0.05,0.15,0,0,0.2,-32.4583333333333,-71.2608333333333,"WGS84"
"Valparaíso","Petorca","La Ligua","2002-2003","LA HIGUERA","2002-12-17","14:00",1240,"Sin alerta","No definido","Incendios de causa desconocida",0,0,0,0,0,0,0.8,1.2,0,0,2,-32.4494444444444,-71.2605555555556,"WGS84"
"Valparaíso","Valparaíso","Concón","2002-2003","LAS GAVIOTAS","2002-12-17","16:54",115,"Sin alerta","No definido","Actividades recreativas",0.1,0,0,0,0,0,0,0,0,0,0.1,-32.9405555555556,-71.5188888888889,"WGS84"
"Valparaíso","Valparaíso","Valparaíso","2002-2003","FUNDO LAS CENIZAS","2002-12-17","17:32",144,"Sin alerta","No definido","Tránsito de personasvehículos o aeronaves",0.4,0,0,0.6,0,0,0.2,0.3,0,0,1.5,-33.0933333333333,-71.5341666666667,"WGS84"
"Valparaíso","Valparaíso","Viña del Mar","2002-2003","LOMA DE SPORTING","2002-12-17","17:42",107,"Sin alerta","No definido","Tránsito de personasvehículos o aeronaves",0,0,0,0.1,0,0,0.3,0.1,0,0,0.5,-33.0213888888889,-71.5319444444444,"WGS84"
"Valparaíso","Valparaíso","Valparaíso","2002-2003","LA LAGUNA","2002-12-17","18:14",93,"Sin alerta","No definido","Tránsito de personasvehículos o aeronaves",0,0,0,0,0,0,0.05,0.1,0,0,0.15,-33.0655555555556,-71.5761111111111,"WGS84"
"Valparaíso","San Antonio","San Antonio","2002-2003","FUNDO LLO LLEO","2002-12-17","18:15",42,"Sin alerta","No definido","Tránsito de personasvehículos o aeronaves",0,0,0,0,0,0,0,0.01,0,0,0.01,-33.6152777777778,-71.5816666666667,"WGS84"
"Valparaíso","Valparaíso","Valparaíso","2002-2003","CUESTA COLORADA","2002-12-17","19:07",93,"Sin alerta","No definido","Actividades recreativas",0,0,0,0.01,0,0,0,0.04,0,0,0.05,-33.0738888888889,-71.6083333333333,"WGS84"
"Valparaíso","Marga Marga","Quilpué","2002-2003","BELLOTO SUR","2002-12-17","19:25",78,"Sin alerta","No definido","Tránsito de personasvehículos o aeronaves",0,0,0,0,0,0,0.05,0.1,0,0,0.15,-33.0691666666667,-71.3941666666667,"WGS84"
"Valparaíso","San Antonio","San Antonio","2002-2003","VISTA HERMOSA","2002-12-17","19:55",32,"Sin alerta","No definido","Tránsito de personasvehículos o aeronaves",0,0,0,0.01,0,0,0,0.01,0,0,0.02,-33.5697222222222,-71.6125,"WGS84"
"Valparaíso","Valparaíso","Viña del Mar","2002-2003","VILLA DULCE NORTE","2002-12-17","21:33",54,"Sin alerta","No definido","Actividades recreativas",0,0,0,0,0,0,0.1,0.2,0,0,0.3,-33.0311111111111,-71.5,"WGS84"
"Valparaíso","Marga Marga","Quilpué","2002-2003","VILLA HERMOSA LAS TORRES","2002-12-17","23:46",81,"Sin alerta","No definido","Tránsito de personasvehículos o aeronaves",0,0,0,0,0,0,0.15,0.25,0,0,0.4,-33.0225,-71.4786111111111,"WGS84"
"Valparaíso","San Antonio","San Antonio","2002-2003","VISTA HERMOSA","2002-12-18","10:48",45,"Sin alerta","No definido","Tránsito de personasvehículos o aeronaves",0,0,0,0.02,0,0,0,0.13,0,0,0.15,-33.5608333333333,-71.6013888888889,"WGS84"
"Valparaíso","Valparaíso","Valparaíso","2002-2003","EL VERGEL","2002-12-18","12:32",150,"Sin alerta","No definido","Incendios intencionales",0,0,0,0.5,0,0,0,0,0,0,0.5,-33.0738888888889,-71.6083333333333,"WGS84"
"Valparaíso","Marga Marga","Villa Alemana","2002-2003","ESTACION PEÑABLANCA","2002-12-18","14:06",33,"Sin alerta","No definido","Actividades recreativas",0,0,0,0,0,0,0,0.03,0,0,0.03,-33.0425,-71.3719444444444,"WGS84"
"Valparaíso","Marga Marga","Villa Alemana","2002-2003","CERRO LA VIRGEN","2002-12-18","14:51",108,"Sin alerta","No definido","Tránsito de personasvehículos o aeronaves",0,0,0,0,0,0,0.4,0.6,0,0,1,-33.0425,-71.3719444444444,"WGS84"
"Valparaíso","San Antonio","Cartagena","2002-2003","EL TURCO","2002-12-18","15:30",177,"Sin alerta","No definido","Accidentes eléctricos",0,0,0,2.5,0,0,4.5,8,0,0,15,-33.5541666666667,-71.4936111111111,"WGS84"
"Valparaíso","Valparaíso","Valparaíso","2002-2003","LA POLVORA","2002-12-18","16:55",115,"Sin alerta","No definido","Tránsito de personasvehículos o aeronaves",0,0,0,0,0,0,0.04,0.06,0,0,0.1,-33.0922222222222,-71.5875,"WGS84"
"Valparaíso","San Antonio","San Antonio","2002-2003","VISTA HERMOSA","2002-12-18","19:05",35,"Sin alerta","No definido","Incendios de causa desconocida",0,0,0,0.01,0,0,0,0.02,0,0,0.03,-33.5608333333333,-71.6013888888889,"WGS84"
"Valparaíso","San Antonio","San Antonio","2002-2003","VISTA HERMOSA 2","2002-12-18","19:25",17,"Sin alerta","No definido","Incendios de causa desconocida",0,0,0,0,0,0,0,0.01,0,0,0.01,-33.5608333333333,-71.6013888888889,"WGS84"
"Valparaíso","Valparaíso","Valparaíso","2002-2003","LAGUNA VERDE","2002-12-19","11:52",110,"Sin alerta","No definido","Tránsito de personasvehículos o aeronaves",0,0,0,0,0,0,0.02,0.01,0,0,0.03,-33.1177777777778,-71.6633333333333,"WGS84"
"Valparaíso","San Antonio","El Quisco","2002-2003","HUALLILLEMU","2002-12-19","12:40",105,"Sin alerta","No definido","Incendios intencionales",0.1,0,0,0,0,0,0.2,0.7,0,0,1,-33.3972222222222,-71.6716666666667,"WGS84"
"Valparaíso","Valparaíso","Valparaíso","2002-2003","NUEVO PLACILLA","2002-12-19","13:18",52,"Sin alerta","No definido","Tránsito de personasvehículos o aeronaves",0.01,0,0,0,0,0,0,0.01,0,0,0.02,-33.1288888888889,-71.5563888888889,"WGS84"
"Valparaíso","Quillota","La Cruz","2002-2003","LA PALMILLA","2002-12-19","12:08",232,"Sin alerta","No definido","Tránsito de personasvehículos o aeronaves",0,0,0,4,0,10,16,60,0,0,90,-32.8022222222222,-71.2052777777778,"WGS84"
"Valparaíso","San Antonio","San Antonio","2002-2003","QUEBRADA HUALLIPEN","2002-12-19","13:43",25,"Sin alerta","No definido","Incendios de causa desconocida",0,0,0,0,0,0,0,0.01,0,0,0.01,-33.5788888888889,-71.6019444444444,"WGS84"
"Valparaíso","Marga Marga","Quilpué","2002-2003","VILLA HERMOSA","2002-12-19","13:59",73,"Sin alerta","No definido","Actividades recreativas",0,0,0,0,0,0,0.03,0.12,0,0,0.15,-33.0402777777778,-71.4897222222222,"WGS84"
"Valparaíso","Valparaíso","Casablanca","2002-2003","FUNDO CHIVATO","2002-12-19","14:18",156,"Sin alerta","No definido","Tránsito de personasvehículos o aeronaves",0,0,0,0.5,0,0,1.5,2,0,0,4,-33.385,-71.3811111111111,"WGS84"
"Valparaíso","San Antonio","San Antonio","2002-2003","BRUCELAS","2002-12-19","14:18",30,"Sin alerta","No definido","Incendios de causa desconocida",0,0,0,0,0,0,0,0.01,0,0,0.01,-33.5788888888889,-71.6019444444444,"WGS84"
"Valparaíso","Marga Marga","Limache","2002-2003","MAITENES ALTO","2002-12-19","14:20",143,"Sin alerta","No definido","Actividades recreativas",0,0,0,0,0,0.1,0.4,1,0,0,1.5,-32.9816666666667,-71.2419444444444,"WGS84"
"Valparaíso","San Antonio","San Antonio","2002-2003","EL PEÑON","2002-12-19","14:50",50,"Sin alerta","No definido","Actividades recreativas",0,0,0,0,0,0,0,0.02,0,0,0.02,-33.6058333333333,-71.6027777777778,"WGS84"
"Valparaíso","Valparaíso","Viña del Mar","2002-2003","REÑACA ALTO","2002-12-19","15:10",53,"Sin alerta","No definido","Quema de desechos",0,0,0,0.02,0,0,0,0.03,0,0,0.05,-32.995,-71.4991666666667,"WGS84"
"Valparaíso","Valparaíso","Viña del Mar","2002-2003","VILLA DULCE NORTE","2002-12-19","16:07",41,"Sin alerta","No definido","Quema de desechos",0,0,0,0,0,0,0,0.06,0,0,0.06,-33.0308333333333,-71.5108333333333,"WGS84"
"Valparaíso","San Antonio","Santo Domingo","2002-2003","SANTA ROSA DE BUCALEMU","2002-12-19","15:55",1290,"Sin alerta","No definido","Tránsito de personasvehículos o aeronaves",0,0,2.18,6.7,0,4.58,18.78,5.96,0,9.25,47.45,-33.865,-71.7186111111111,"WGS84"
"Valparaíso","Valparaíso","Viña del Mar","2002-2003","MIRADOR DE REÑACA","2002-12-19","16:46",31,"Sin alerta","No definido","Tránsito de personasvehículos o aeronaves",0,0,0,0,0,0,0,0.04,0,0,0.04,-33.0038888888889,-71.4994444444444,"WGS84"
"Valparaíso","Valparaíso","Viña del Mar","2002-2003","ACHUPALLAS","2002-12-19","16:51",51,"Sin alerta","No definido","Actividades recreativas",0,0,0,0,0,0,0,0.02,0,0,0.02,-33.0038888888889,-71.4994444444444,"WGS84"
"Valparaíso","Valparaíso","Valparaíso","2002-2003","EL VERGEL","2002-12-19","17:02",103,"Sin alerta","No definido","Tránsito de personasvehículos o aeronaves",0,0,0,0.2,0,0,0,0.1,0,0,0.3,-33.0647222222222,-71.6080555555556,"WGS84"
"Valparaíso","Valparaíso","Concón","2002-2003","VILLA PRIMAVERA","2002-12-19","17:39",64,"Sin alerta","No definido","Tránsito de personasvehículos o aeronaves",0.02,0,0,0,0,0,0,0,0,0,0.02,-32.9405555555556,-71.5188888888889,"WGS84"
"Valparaíso","San Antonio","San Antonio","2002-2003","POBLACION EL CARMEN","2002-12-19","17:45",55,"Sin alerta","No definido","Incendios intencionales",0,0,0,0,0,0,0,0.5,0,0,0.5,-33.5608333333333,-71.6013888888889,"WGS84"
"Valparaíso","Valparaíso","Valparaíso","2002-2003","CERRO ALEGRE","2002-12-19","19:18",101,"Sin alerta","No definido","Actividades recreativas",0,0,0,0,0,0,0.2,0.8,0,0,1,-33.0461111111111,-71.6397222222222,"WGS84"
"Valparaíso","Valparaíso","Viña del Mar","2002-2003","LOS CORRALES","2002-12-19","23:33",81,"Sin alerta","No definido","Actividades recreativas",0.05,0,0,0,0,0,0.15,0.3,0,0,0.5,-32.9952777777778,-71.4777777777778,"WGS84"
"Valparaíso","Valparaíso","Viña del Mar","2002-2003","REÑACA ALTO","2002-12-20","13:18",72,"Sin alerta","No definido","Tránsito de personasvehículos o aeronaves",0,0,0,0,0,0,0.01,0.01,0,0,0.02,-32.9858333333333,-71.4988888888889,"WGS84"
"Valparaíso","Valparaíso","Viña del Mar","2002-2003","REÑAVCA ALTO 2","2002-12-20","12:03",35,"Sin alerta","No definido","Actividades recreativas",0,0,0,0.2,0,0,0,0.2,0,0,0.4,-32.9952777777778,-71.4883333333333,"WGS84"
"Valparaíso","Valparaíso","Valparaíso","2002-2003","LAGUNA VERDE","2002-12-20","14:37",153,"Sin alerta","No definido","Tránsito de personasvehículos o aeronaves",0,0,0,0,0,0,0.03,0.07,0,0,0.1,-33.0994444444444,-71.6733333333333,"WGS84"
"Valparaíso","Valparaíso","Valparaíso","2002-2003","LAGUNA VERDE 2","2002-12-20","14:45",150,"Sin alerta","No definido","Tránsito de personasvehículos o aeronaves",0,0,0,0,0,0,0.3,0.7,0,0,1,-33.1086111111111,-71.6736111111111,"WGS84"
"Valparaíso","Marga Marga","Quilpué","2002-2003","FRUTILLAR","2002-12-20","14:55",48,"Sin alerta","No definido","Actividades recreativas",0,0,0,0,0,0,0.02,0.04,0,0,0.06,-33.0319444444444,-71.4572222222222,"WGS84"
"Valparaíso","Valparaíso","Viña del Mar","2002-2003","MIRAFLORES","2002-12-20","15:10",61,"Sin alerta","No definido","Quema de desechos",0,0,0,0,0,0,0,0.02,0,0,0.02,-33.0216666666667,-71.5213888888889,"WGS84"
"Valparaíso","Valparaíso","Viña del Mar","2002-2003","REÑACA ALTO 3","2002-12-20","15:31",89,"Sin alerta","No definido","Tránsito de personasvehículos o aeronaves",0,0,0,0.01,0,0.02,0.06,0,0,0,0.09,-32.995,-71.4991666666667,"WGS84"
"Valparaíso","Valparaíso","Viña del Mar","2002-2003","EL OLIVAR","2002-12-20","17:40",23,"Sin alerta","No definido","Actividades recreativas",0,0,0,0,0,0,0,0.02,0,0,0.02,-33.04,-71.5002777777778,"WGS84"
"Valparaíso","Valparaíso","Viña del Mar","2002-2003","EXPRESOS VIÑA DEL MAR","2002-12-20","17:59",113,"Sin alerta","No definido","Tránsito de personasvehículos o aeronaves",0,0,0,0.05,0,0,0.15,0.8,0,0,1,-32.995,-71.4991666666667,"WGS84"
"Valparaíso","Valparaíso","Valparaíso","2002-2003","EL VERGEL","2002-12-20","17:40",228,"Sin alerta","No definido","Actividades recreativas",0,0,0,1.2,0,0,0.2,0.1,0,0,1.5,-33.0647222222222,-71.6080555555556,"WGS84"
"Valparaíso","San Antonio","San Antonio","2002-2003","FUNDO MIRAMAR","2002-12-20","18:45",101,"Sin alerta","No definido","Incendios intencionales",0,0,0,0.2,0,0,0,0.3,0,0,0.5,-33.5794444444444,-71.5697222222222,"WGS84"
"Valparaíso","Valparaíso","Concón","2002-2003","VILLA PRIMAVERA","2002-12-20","19:18",80,"Sin alerta","No definido","Actividades recreativas",0.1,0,0,0,0,0,0,0,0,0,0.1,-32.9225,-71.5077777777778,"WGS84"
"Valparaíso","San Antonio","San Antonio","2002-2003","CAMINO VIEJO A CARTAGENA","2002-12-20","19:20",30,"Sin alerta","No definido","Incendios intencionales",0,0,0,0,0,0,0,0.02,0,0,0.02,-33.5611111111111,-71.5905555555556,"WGS84"
"Valparaíso","Valparaíso","Viña del Mar","2002-2003","LAJARILLA","2002-12-20","20:07",75,"Sin alerta","No definido","Actividades recreativas",0,0,0,0,0,0,0.3,0.5,0,0,0.8,-32.9594444444444,-71.4766666666667,"WGS84"
"Valparaíso","Valparaíso","Viña del Mar","2002-2003","LOS CORRALES","2002-12-21","00:40",107,"Sin alerta","No definido","Tránsito de personasvehículos o aeronaves",0,0,0,0,0,0,0.4,0.6,0,0,1,-32.9772222222222,-71.4877777777778,"WGS84"
"Valparaíso","Valparaíso","Valparaíso","2002-2003","CERRO JIMENEZ","2002-12-21","14:23",90,"Sin alerta","No definido","Tránsito de personasvehículos o aeronaves",0,0,0,0.01,0,0,0,0.01,0,0,0.02,-33.0644444444444,-71.6294444444444,"WGS84"
"Valparaíso","Valparaíso","Valparaíso","2002-2003","SEXTO SECTOR CORVI","2002-12-21","16:03",28,"Sin alerta","No definido","Actividades recreativas",0,0,0,0,0,0,0,0.01,0,0,0.01,-33.055,-71.6508333333333,"WGS84"
"Valparaíso","San Antonio","San Antonio","2002-2003","CEMENTERIO PARROQUIAL","2002-12-21","16:28",37,"Sin alerta","No definido","Actividades recreativas",0,0,0,0,0,0,0,0.02,0,0,0.02,-33.5697222222222,-71.6125,"WGS84"
"Valparaíso","Valparaíso","Concón","2002-2003","CON CON","2002-12-21","16:18",125,"Sin alerta","No definido","Tránsito de personasvehículos o aeronaves",0.02,0,0,0,0,0,0,0.02,0,0,0.04,-32.9405555555556,-71.5188888888889,"WGS84"
"Valparaíso","Petorca","La Ligua","2002-2003","EL RAYADO","2002-12-21","16:19",126,"Sin alerta","No definido","Tránsito de personasvehículos o aeronaves",0,0,0,0,0,0,2,4,0,0,6,-32.4586111111111,-71.2502777777778,"WGS84"
"Valparaíso","Valparaíso","Viña del Mar","2002-2003","VIÑA DEL MAR ALTO","2002-12-21","17:26",81,"Sin alerta","No definido","Quema de desechos",0,0,0,0,0,0,0.01,0.03,0,0,0.04,-33.0388888888889,-71.5538888888889,"WGS84"
"Valparaíso","Valparaíso","Valparaíso","2002-2003","CERRO JIMENEZ","2002-12-21","17:36",48,"Sin alerta","No definido","Tránsito de personasvehículos o aeronaves",0,0,0,0.02,0,0,0,0,0,0,0.02,-33.0644444444444,-71.6294444444444,"WGS84"
"Valparaíso","San Antonio","El Quisco","2002-2003","LOS COPIHUES","2002-12-21","19:20",85,"Sin alerta","No definido","Tránsito de personasvehículos o aeronaves",0,0,0,0.2,0,0,0,1,0,0.4,1.6,-33.415,-71.6830555555556,"WGS84"
"Valparaíso","San Antonio","San Antonio","2002-2003","LLANOS DE BELLAVISTA","2002-12-21","21:14",21,"Sin alerta","No definido","Quema de desechos",0,0,0,0.01,0,0,0,0.04,0,0,0.05,-33.5608333333333,-71.6013888888889,"WGS84"
"Valparaíso","Valparaíso","Viña del Mar","2002-2003","VILLA ARAUCO","2002-12-22","12:06",81,"Sin alerta","No definido","Actividades recreativas",0,0,0,0,0,0,0.3,0.7,0,0,1,-33.0222222222222,-71.4891666666667,"WGS84"
"Valparaíso","San Antonio","San Antonio","2002-2003","CERRO LA VIRGEN","2002-12-22","12:32",73,"Sin alerta","No definido","Incendios de causa desconocida",0,0,0,0,0,0,0,1.5,0,0,1.5,-33.5697222222222,-71.6125,"WGS84"
"Valparaíso","Petorca","La Ligua","2002-2003","LA GRUTA","2002-12-22","12:48",46,"Sin alerta","No definido","Tránsito de personasvehículos o aeronaves",0,0,0,0,0,0,0.1,0.4,0,0,0.5,-32.4497222222222,-71.235,"WGS84"
"Valparaíso","San Antonio","San Antonio","2002-2003","PLANICIES DE BELLAVISTA","2002-12-22","15:43",18,"Sin alerta","No definido","Incendios de causa desconocida",0,0,0,0,0,0,0,0.01,0,0,0.01,-33.5608333333333,-71.6013888888889,"WGS84"
"Valparaíso","San Antonio","San Antonio","2002-2003","FDO MIRAMAR","2002-12-22","15:30",54,"Sin alerta","No definido","Incendios de causa desconocida",0,0,0,0,0,0,0,0.01,0,0,0.01,-33.5791666666667,-71.5911111111111,"WGS84"
"Valparaíso","San Antonio","San Antonio","2002-2003","CERRO LA VIRGEN","2002-12-22","16:35",43,"Sin alerta","No definido","Incendios de causa desconocida",0,0,0.1,0,0,0,0,1.4,0,0,1.5,-33.5694444444444,-71.6233333333333,"WGS84"
"Valparaíso","Marga Marga","Villa Alemana","2002-2003","LAS VEGAS","2002-12-22","17:34",28,"Sin alerta","No definido","Actividades recreativas",0,0,0,0,0,0,0.01,0.04,0,0,0.05,-33.0419444444444,-71.4041666666667,"WGS84"
"Valparaíso","San Antonio","San Antonio","2002-2003","VIUDA VI","2002-12-22","17:44",36,"Sin alerta","No definido","Incendios de causa desconocida",0,0,0,0,0,0,0.01,0.04,0,0,0.05,-33.6152777777778,-71.5922222222222,"WGS84"
"Valparaíso","Valparaíso","Concón","2002-2003","LAS GAVIOTAS","2002-12-22","18:59",70,"Sin alerta","No definido","Actividades recreativas",0.01,0,0,0,0,0,0,0,0,0,0.01,-32.9405555555556,-71.5188888888889,"WGS84"
"Valparaíso","San Antonio","San Antonio","2002-2003","VIUDA VI","2002-12-23","12:42",45,"Sin alerta","No definido","Actividades recreativas",0,0,0,0,0,0,0,0.03,0,0,0.03,-33.6152777777778,-71.5816666666667,"WGS84"
"Valparaíso","San Antonio","El Quisco","2002-2003","PINARES","2002-12-23","15:15",237,"Sin alerta","No definido","Incendios intencionales",0.1,0,0,0,0,0,0.3,1.2,0,0,1.6,-33.3886111111111,-71.65,"WGS84"
"Valparaíso","Valparaíso","Concón","2002-2003","LAS GAVIOTAS","2002-12-23","15:31",85,"Sin alerta","No definido","Actividades recreativas",0.02,0,0,0,0,0,0,0.01,0,0,0.03,-32.9405555555556,-71.5188888888889,"WGS84"
"Valparaíso","San Antonio","San Antonio","2002-2003","CERRO LA VIRGEN","2002-12-23","15:30",173,"Sin alerta","No definido","Actividades recreativas",0,0.5,0,0,0,0,0,4,0,0,4.5,-33.5697222222222,-71.6125,"WGS84"
"Valparaíso","San Antonio","San Antonio","2002-2003","VISTA HERMOSA","2002-12-23","15:30",40,"Sin alerta","No definido","Incendios de causa desconocida",0,0,0,0.01,0,0,0,0.01,0,0,0.02,-33.5519444444444,-71.6011111111111,"WGS84"
"Valparaíso","San Antonio","Cartagena","2002-2003","SANTA ELIDA","2002-12-23","16:00",22,"Sin alerta","No definido","Incendios intencionales",0,0,0,0,0,0,0,0.05,0,0,0.05,-33.5433333333333,-71.5794444444444,"WGS84"
"Valparaíso","San Antonio","El Quisco","2002-2003","FUNDO MAQUEHUANO","2002-12-23","16:15",139,"Sin alerta","No definido","Tránsito de personasvehículos o aeronaves",0,0,0.1,0,0,0,0.1,0,0,0.2,0.4,-33.4058333333333,-71.6827777777778,"WGS84"
"Valparaíso","San Antonio","San Antonio","2002-2003","PERLA DACAUD","2002-12-23","16:42",62,"Sin alerta","No definido","Actividades recreativas",0,0,0,0,0,0,0,0.02,0,0,0.02,-33.5611111111111,-71.5905555555556,"WGS84"
"Valparaíso","Valparaíso","Valparaíso","2002-2003","VERGEL","2002-12-23","16:46",139,"Sin alerta","No definido","Actividades recreativas",0,0,0,0.06,0,0,0,0,0,0,0.06,-33.0738888888889,-71.6083333333333,"WGS84"
"Valparaíso","Valparaíso","Valparaíso","2002-2003","LAS CENIZAS","2002-12-23","17:10",64,"Sin alerta","No definido","Tránsito de personasvehículos o aeronaves",0,0,0,0.02,0,0,0,0.01,0,0,0.03,-33.1111111111111,-71.5452777777778,"WGS84"
"Valparaíso","Valparaíso","Viña del Mar","2002-2003","EL PALTO","2002-12-23","18:55",64,"Sin alerta","No definido","Actividades recreativas",0,0,0,0,0,0,0.04,0.06,0,0,0.1,-33.0219444444444,-71.485,"WGS84"
"Valparaíso","San Antonio","San Antonio","2002-2003","PERLA DACOUD","2002-12-23","21:00",24,"Sin alerta","No definido","Incendios de causa desconocida",0,0,0,0,0,0,0,0.2,0,0,0.2,-33.5611111111111,-71.5905555555556,"WGS84"
"Valparaíso","Valparaíso","Viña del Mar","2002-2003","GLORIAS NAVALES","2002-12-24","13:42",48,"Sin alerta","No definido","Tránsito de personasvehículos o aeronaves",0,0,0,0,0,0,0,0.02,0,0,0.02,-32.995,-71.4991666666667,"WGS84"
"Valparaíso","San Antonio","San Antonio","2002-2003","POBLACION BRUCELAS","2002-12-24","14:00",34,"Sin alerta","No definido","Incendios intencionales",0,0,0,0,0,0,0,0.4,0,0,0.4,-33.5608333333333,-71.6013888888889,"WGS84"
"Valparaíso","Marga Marga","Villa Alemana","2002-2003","EL PEUMO","2002-12-24","14:17",71,"Sin alerta","No definido","Actividades recreativas",0,0,0,0,0,0,0.01,0.09,0,0,0.0999999999999999,-33.0786111111111,-71.3730555555556,"WGS84"
"Valparaíso","Valparaíso","Concón","2002-2003","LAJARILLA","2002-12-24","14:38",93,"Sin alerta","No definido","Actividades recreativas",0.05,0,0,0,0,0,0,0.15,0,0,0.2,-32.9858333333333,-71.4988888888889,"WGS84"
"Valparaíso","Petorca","La Ligua","2002-2003","PLACILLA","2002-12-24","14:15",43,"Sin alerta","No definido","Incendios intencionales",0,0,0,0,0,0,0,0.2,0,0,0.2,-32.4491666666667,-71.2711111111111,"WGS84"
"Valparaíso","Valparaíso","Valparaíso","2002-2003","CERRO ESPERANZA","2002-12-24","15:24",63,"Sin alerta","No definido","Actividades recreativas",0,0,0,0,0,0,0,0.03,0,0,0.03,-33.0477777777778,-71.5647222222222,"WGS84"
"Valparaíso","Valparaíso","Valparaíso","2002-2003","LAS DOCAS LAGUNA VERDE","2002-12-24","15:51",75,"Sin alerta","No definido","Actividades recreativas",0.01,0,0,0,0,0,0.03,0.04,0,0,0.08,-33.1177777777778,-71.6633333333333,"WGS84"
"Valparaíso","Marga Marga","Villa Alemana","2002-2003","POBLACION PRAT","2002-12-24","16:21",80,"Sin alerta","No definido","Tránsito de personasvehículos o aeronaves",0,0,0,0.01,0,0,0.24,0.75,0,0,1,-33.0741666666667,-71.5869444444444,"WGS84"
"Valparaíso","San Antonio","San Antonio","2002-2003","FUNDO LLO LLEO","2002-12-24","17:00",32,"Sin alerta","No definido","Incendios de causa desconocida",0,0,0,0.1,0,0,0,0.5,0,0,0.6,-33.6061111111111,-71.5919444444445,"WGS84"
"Valparaíso","Marga Marga","Quilpué","2002-2003","FUNDO FRUTILLAR","2002-12-24","17:28",125,"Sin alerta","No definido","Tránsito de personasvehículos o aeronaves",0,0,0,0,0,0,0.4,0.5,0,0,0.9,-33.0241666666667,-71.3927777777778,"WGS84"
"Valparaíso","Marga Marga","Villa Alemana","2002-2003","CUESTA EL PANGAL","2002-12-24","18:07",127,"Sin alerta","No definido","Tránsito de personasvehículos o aeronaves",0,0,0,0,0,0.3,0.4,0.8,0,0,1.5,-33.035,-71.2861111111111,"WGS84"
"Valparaíso","Valparaíso","Viña del Mar","2002-2003","REÑACA ALTO","2002-12-24","18:40",104,"Sin alerta","No definido","Actividades recreativas",0,0,0,0,0,0,0.1,0.2,0,0,0.3,-33.0044444444444,-71.4780555555556,"WGS84"
"Valparaíso","Valparaíso","Valparaíso","2002-2003","ROCUANT","2002-12-24","21:11",108,"Sin alerta","No definido","Tránsito de personasvehículos o aeronaves",0,0,0,0,0,0,0.1,0.1,0,0,0.2,-33.0683333333333,-71.5872222222222,"WGS84"
"Valparaíso","Petorca","La Ligua","2002-2003","LA LIGUA","2002-12-25","08:18",72,"Sin alerta","No definido","Incendios intencionales",0,0,0,0,0,0,0,1,0,0,1,-32.4316666666667,-71.2494444444444,"WGS84"
"Valparaíso","Petorca","La Ligua","2002-2003","VILLA LUA","2002-12-25","08:19",81,"Sin alerta","No definido","Incendios intencionales",0,0,0,0.04,0,0,0.36,0.6,0,0,1,-32.4497222222222,-71.235,"WGS84"
"Valparaíso","San Antonio","San Antonio","2002-2003","CAMPIÑA 2","2002-12-25","12:50",63,"Sin alerta","No definido","Incendios de causa desconocida",0,0,0,0,0,0,0,1,0,0,1,-33.6152777777778,-71.5922222222222,"WGS84"
"Valparaíso","Valparaíso","Viña del Mar","2002-2003","REÑACA ALTO","2002-12-25","14:05",163,"Sin alerta","No definido","Actividades recreativas",0,0,0,0,0,0,1,1.5,0,0,2.5,-33.0044444444444,-71.4780555555556,"WGS84"
"Valparaíso","Quillota","Quillota","2002-2003","EL BOCO","2002-12-25","15:12",260,"Sin alerta","No definido","Tránsito de personasvehículos o aeronaves",0,0,0,2,0,1,2,5,0,0,10,-32.8819444444444,-71.2713888888889,"WGS84"
"Valparaíso","Marga Marga","Villa Alemana","2002-2003","POBLACION WILSON","2002-12-25","15:21",39,"Sin alerta","No definido","Actividades recreativas",0,0,0,0,0,0,0,0.02,0,0,0.02,-33.0519444444444,-71.3508333333333,"WGS84"
"Valparaíso","San Antonio","San Antonio","2002-2003","VISTA HERMOSA","2002-12-25","15:37",269,"Sin alerta","No definido","Incendios de causa desconocida",0,0,0,0.2,0,0,0,0.8,0,0,1,-33.5605555555556,-71.6122222222222,"WGS84"
"Valparaíso","San Antonio","Cartagena","2002-2003","LO ZARATE","2002-12-25","16:00",190,"Sin alerta","No definido","Incendios intencionales",0,0,0,0.3,0,0,1.5,7.2,0,0,9,-33.5263888888889,-71.525,"WGS84"
"Valparaíso","Marga Marga","Olmué","2002-2003","PARADERO 25 OLMUE","2002-12-25","17:37",116,"Sin alerta","No definido","Tránsito de personasvehículos o aeronaves",0,0,0,0,0,0,0.01,0.01,0,0,0.02,-32.9830555555556,-71.1777777777778,"WGS84"
"Valparaíso","Valparaíso","Viña del Mar","2002-2003","EL PALTO","2002-12-25","17:59",48,"Sin alerta","No definido","Quema de desechos",0,0,0,0,0,0,0,0.03,0,0,0.03,-33.0216666666667,-71.5213888888889,"WGS84"
"Valparaíso","Valparaíso","Viña del Mar","2002-2003","EO OLIVAR","2002-12-25","18:40",53,"Sin alerta","No definido","Quema de desechos",0,0,0,0,0,0,0,0.04,0,0,0.04,-33.0311111111111,-71.5,"WGS84"
"Valparaíso","Marga Marga","Villa Alemana","2002-2003","LAS PARCELAS","2002-12-25","18:51",82,"Sin alerta","No definido","Tránsito de personasvehículos o aeronaves",0,0,0,0,0,0,0.3,1,0,0,1.3,-33.07,-71.3513888888889,"WGS84"
"Valparaíso","Valparaíso","Valparaíso","2002-2003","MONTEDONICO","2002-12-25","18:49",72,"Sin alerta","No definido","Quema de desechos",0,0,0,0,0,0,0.01,0.02,0,0,0.03,-33.0552777777778,-71.64,"WGS84"
"Valparaíso","San Antonio","San Antonio","2002-2003","CERRO LA VIRGEN","2002-12-25","18:50",54,"Sin alerta","No definido","Incendios intencionales",0,0,0,0,0,0,0,0.2,0,0,0.2,-33.5697222222222,-71.6125,"WGS84"
"Valparaíso","Marga Marga","Limache","2002-2003","CAMINO LOS MOLLES","2002-12-25","19:44",80,"Sin alerta","No definido","Tránsito de personasvehículos o aeronaves",0,0,0,0,0,0,1.5,3,0,0,4.5,-33.0544444444444,-71.2116666666667,"WGS84"
"Valparaíso","Valparaíso","Viña del Mar","2002-2003","LOMAS DE SPORTING","2002-12-25","20:02",77,"Sin alerta","No definido","Quema de desechos",0,0,0,0,0,0,0.2,0.3,0,0,0.5,-33.0216666666667,-71.5213888888889,"WGS84"
"Valparaíso","Valparaíso","Valparaíso","2002-2003","PLACILLA","2002-12-25","22:40",123,"Sin alerta","No definido","Tránsito de personasvehículos o aeronaves",0.05,0,0,0,0,0,0,0.1,0,0,0.15,-33.1288888888889,-71.5563888888889,"WGS84"
"Valparaíso","Marga Marga","Villa Alemana","2002-2003","TRANQUE RECREO","2002-12-26","14:52",43,"Sin alerta","No definido","Quema de desechos",0,0,0,0,0,0,0.01,0.03,0,0,0.04,-33.0788888888889,-71.3622222222222,"WGS84"
"Valparaíso","Valparaíso","Valparaíso","2002-2003","LA ISLA","2002-12-26","14:57",57,"Sin alerta","No definido","Tránsito de personasvehículos o aeronaves",0,0,0,0,0,0,0,0.01,0,0,0.01,-33.0683333333333,-71.5872222222222,"WGS84"
"Valparaíso","Valparaíso","Valparaíso","2002-2003","PLACILLA","2002-12-26","16:44",44,"Sin alerta","No definido","Tránsito de personasvehículos o aeronaves",0.02,0,0,0,0,0,0,0.02,0,0,0.04,-33.1288888888889,-71.5563888888889,"WGS84"
"Valparaíso","San Antonio","San Antonio","2002-2003","PERLA DACOUT","2002-12-26","16:42",21,"Sin alerta","No definido","Incendios de causa desconocida",0,0,0,0.1,0,0,0,0.1,0,0,0.2,-33.5613888888889,-71.58,"WGS84"
"Valparaíso","Marga Marga","Limache","2002-2003","QUERONQUE","2002-12-26","17:34",106,"Sin alerta","No definido","Tránsito de personasvehículos o aeronaves",0,0,0,0,0,0,0.3,1.2,0,0,1.5,-32.9708333333333,-71.3486111111111,"WGS84"
"Valparaíso","San Antonio","Cartagena","2002-2003","TUMBA EL POETA","2002-12-26","17:32",28,"Sin alerta","No definido","Incendios de causa desconocida",0,0,0,0,0,0,0,0.3,0,0,0.3,-33.5519444444444,-71.6011111111111,"WGS84"
"Valparaíso","Valparaíso","Valparaíso","2002-2003","PAJONAL","2002-12-26","18:00",108,"Sin alerta","No definido","Tránsito de personasvehículos o aeronaves",0,0,0,0.01,0,0,0.01,0.01,0,0,0.03,-33.065,-71.5975,"WGS84"
"Valparaíso","Marga Marga","Villa Alemana","2002-2003","LAS VEGAS","2002-12-26","18:17",44,"Sin alerta","No definido","Quema de desechos",0,0,0,0,0,0,0,0.02,0,0,0.02,-33.0419444444444,-71.4041666666667,"WGS84"
"Valparaíso","San Antonio","San Antonio","2002-2003","CAMINO VIEJO A CARTAGENA","2002-12-26","19:49",23,"Sin alerta","No definido","Incendios de causa desconocida",0,0,0,0,0,0,0,0.05,0,0,0.05,-33.5608333333333,-71.6013888888889,"WGS84"
"Valparaíso","Marga Marga","Quilpué","2002-2003","FDO EL REBAÑO","2002-12-26","21:13",127,"Sin alerta","No definido","Tránsito de personasvehículos o aeronaves",0,0,0,0,0,0,0.7,0.8,0,0,1.5,-33.0225,-71.4786111111111,"WGS84"
"Valparaíso","San Antonio","San Antonio","2002-2003","VIUDA VI","2002-12-27","13:48",62,"Sin alerta","No definido","Incendios de causa desconocida",0,0,0,0,0,0,0,0.8,0,0,0.8,-33.6061111111111,-71.5919444444445,"WGS84"
"Valparaíso","San Antonio","San Antonio","2002-2003","PLANICIES DE BELLAVISTA","2002-12-27","15:00",66,"Sin alerta","No definido","Incendios de causa desconocida",0,0,0,0,0,0,0,1,0,0,1,-33.5608333333333,-71.6013888888889,"WGS84"
"Valparaíso","Petorca","La Ligua","2002-2003","JAURURO","2002-12-27","17:35",40,"Sin alerta","No definido","Tránsito de personasvehículos o aeronaves",0,0,0,0,0,0,0,0.01,0,0,0.01,-32.4577777777778,-71.2927777777778,"WGS84"
"Valparaíso","Valparaíso","Viña del Mar","2002-2003","GRANADILLA","2002-12-27","18:10",81,"Sin alerta","No definido","Tránsito de personasvehículos o aeronaves",0,0,0,0,0,0,0.1,0.1,0,0,0.2,-33.0125,-71.5211111111111,"WGS84"
"Valparaíso","Valparaíso","Valparaíso","2002-2003","EL VERGEL","2002-12-27","18:43",68,"Sin alerta","No definido","Tránsito de personasvehículos o aeronaves",0,0,0,0,0,0,0.05,0,0,0,0.05,-33.0647222222222,-71.6080555555556,"WGS84"
"Valparaíso","San Antonio","San Antonio","2002-2003","PUERTO NUEVO","2002-12-27","18:50",45,"Sin alerta","No definido","Incendios de causa desconocida",0,0,0,0,0,0,0,0.01,0,0,0.01,-33.5519444444444,-71.6011111111111,"WGS84"
"Valparaíso","San Antonio","Cartagena","2002-2003","TUMBA EL POETA","2002-12-27","19:09",41,"Sin alerta","No definido","Incendios de causa desconocida",0,0,0,0,0,0,0,0.03,0,0,0.03,-33.5427777777778,-71.6008333333333,"WGS84"
"Valparaíso","San Antonio","El Quisco","2002-2003","SUBIDA LAS MONJAS","2002-12-27","20:04",51,"Sin alerta","No definido","Tránsito de personasvehículos o aeronaves",0,0.01,0,0,0,0,0,0.02,0,0,0.03,-33.415,-71.6830555555556,"WGS84"
"Valparaíso","Marga Marga","Quilpué","2002-2003","TENIENTE SERRANO","2002-12-27","22:35",97,"Sin alerta","No definido","Quema de desechos",0,0,0,0,0,0,0.2,0.3,0,0,0.5,-33.0777777777778,-71.4158333333333,"WGS84"
"Valparaíso","San Antonio","San Antonio","2002-2003","VIUDA VI","2002-12-28","14:19",36,"Sin alerta","No definido","Incendios de causa desconocida",0,0,0,0,0,0,0,0.06,0,0,0.06,-33.6061111111111,-71.5919444444445,"WGS84"
"Valparaíso","Valparaíso","Valparaíso","2002-2003","CERRO LA TORRE","2002-12-28","14:43",108,"Sin alerta","No definido","Actividades recreativas",0,0,0,0,0,0.1,0.2,0.7,0,0,1,-33.0647222222222,-71.6188888888889,"WGS84"
"Valparaíso","Valparaíso","Casablanca","2002-2003","LO OVALLE","2002-12-28","16:07",107,"Sin alerta","No definido","Tránsito de personasvehículos o aeronaves",0,0,0,0,0,0,1,3,0,0,4,-33.3033333333333,-71.4005555555556,"WGS84"
"Valparaíso","Valparaíso","Valparaíso","2002-2003","PAJONAL","2002-12-28","16:38",154,"Sin alerta","No definido","Tránsito de personasvehículos o aeronaves",0,0,0,0.6,0,0,0.1,0.1,0,0,0.8,-33.065,-71.5975,"WGS84"
"Valparaíso","Valparaíso","Valparaíso","2002-2003","SANTA ROSA DE PAJONAL","2002-12-28","17:30",131,"Sin alerta","No definido","Actividades recreativas",0,0,0,1.2,0,0,0,0,0,0,1.2,-33.0647222222222,-71.6080555555556,"WGS84"
"Valparaíso","Valparaíso","Valparaíso","2002-2003","CERRO LA MERCED","2002-12-28","18:29",85,"Sin alerta","No definido","Tránsito de personasvehículos o aeronaves",0,0,0,0.2,0,0,0.6,0,0,0,0.8,-33.0647222222222,-71.6080555555556,"WGS84"
"Valparaíso","Valparaíso","Valparaíso","2002-2003","RODELILLO","2002-12-28","18:20",36,"Sin alerta","No definido","Actividades recreativas",0,0,0,0,0,0,0,0.01,0,0,0.01,-33.0472222222222,-71.5861111111111,"WGS84"
"Valparaíso","San Antonio","San Antonio","2002-2003","PERLA DACOUD","2002-12-28","18:20",57,"Sin alerta","No definido","Incendios de causa desconocida",0,0,0,0.1,0,0,0,0.2,0,0,0.3,-33.5611111111111,-71.5905555555556,"WGS84"
"Valparaíso","Valparaíso","Valparaíso","2002-2003","LA ISLA","2002-12-28","19:10",34,"Sin alerta","No definido","Actividades recreativas",0,0,0,0,0,0,0.01,0,0,0,0.01,-33.0836111111111,-71.5766666666667,"WGS84"
"Valparaíso","San Antonio","San Antonio","2002-2003","FUNDO MIRAMAR","2002-12-28","19:25",50,"Sin alerta","No definido","Incendios de causa desconocida",0,0,0,0.02,0,0,0,0.04,0,0,0.06,-33.5883333333333,-71.5808333333333,"WGS84"
"Valparaíso","Marga Marga","Quilpué","2002-2003","VISTA HERMOSA","2002-12-28","19:38",85,"Sin alerta","No definido","Tránsito de personasvehículos o aeronaves",0,0,0,0,0,0,0.5,1,0,0,1.5,-33.0222222222222,-71.4891666666667,"WGS84"
"Valparaíso","San Antonio","San Antonio","2002-2003","CAMPIÑA 2","2002-12-28","19:50",32,"Sin alerta","No definido","Incendios de causa desconocida",0,0,0,0,0,0,0,0.02,0,0,0.02,-33.6152777777778,-71.5922222222222,"WGS84"
"Valparaíso","San Antonio","San Antonio","2002-2003","COLINAS DEL MAR","2002-12-28","20:55",100,"Sin alerta","No definido","Quema de desechos",0,0,0,0,0,0,0,1,0,0,1,-33.5880555555556,-71.5913888888889,"WGS84"
"Valparaíso","San Antonio","San Antonio","2002-2003","QUEBRADA BRUCELAS","2002-12-29","12:10",40,"Sin alerta","No definido","Actividades recreativas",0,0,0,0,0,0,0,0.05,0,0,0.05,-33.5611111111111,-71.5905555555556,"WGS84"
"Valparaíso","Marga Marga","Villa Alemana","2002-2003","LAS CABRAS","2002-12-29","12:42",99,"Sin alerta","No definido","Tránsito de personasvehículos o aeronaves",0,0,0,0,0,0,0.05,0.2,0,0,0.25,-33.0241666666667,-71.3927777777778,"WGS84"
"Valparaíso","Valparaíso","Viña del Mar","2002-2003","EL OLIVAR","2002-12-29","13:55",53,"Sin alerta","No definido","Tránsito de personasvehículos o aeronaves",0,0,0,0,0,0,0.03,0.07,0,0,0.1,-33.0311111111111,-71.4894444444444,"WGS84"
"Valparaíso","San Antonio","El Tabo","2002-2003","AGUAS MARINAS","2002-12-29","14:36",39,"Sin alerta","No definido","Incendios intencionales",0,0,0,0,0,0,0.01,0.04,0,0,0.05,-33.4519444444444,-71.6305555555556,"WGS84"
"Valparaíso","Valparaíso","Valparaíso","2002-2003","QUBRADA VERDE","2002-12-29","14:33",111,"Sin alerta","No definido","Tránsito de personasvehículos o aeronaves",0,0,0,0.1,0,0,0.2,0,0,0,0.3,-33.0819444444444,-71.6513888888889,"WGS84"
"Valparaíso","San Antonio","San Antonio","2002-2003","FUNDO LLO LLEO","2002-12-29","15:25",33,"Sin alerta","No definido","Incendios de causa desconocida",0,0,0,0,0,0,0,0.01,0,0,0.01,-33.5972222222222,-71.5916666666667,"WGS84"
"Valparaíso","San Antonio","San Antonio","2002-2003","CAMPIÑA 2","2002-12-29","16:28",46,"Sin alerta","No definido","Incendios de causa desconocida",0,0,0,0,0,0,0,1,0,0,1,-33.6152777777778,-71.5922222222222,"WGS84"
"Valparaíso","Valparaíso","Viña del Mar","2002-2003","GRANADILLA 1","2002-12-29","17:12",95,"Sin alerta","No definido","Actividades recreativas",0,0,0,0,0,0,0.6,0.6,0,0,1.2,-33.0125,-71.5211111111111,"WGS84"
"Valparaíso","San Antonio","Cartagena","2002-2003","VISTA HERMOSA","2002-12-29","17:11",139,"Sin alerta","No definido","Incendios de causa desconocida",0,0,0,2,0,0,0,10,0,0,12,-33.5608333333333,-71.6013888888889,"WGS84"
"Valparaíso","Marga Marga","Quilpué","2002-2003","ALTO EL YUGO","2002-12-29","17:20",35,"Sin alerta","No definido","Tránsito de personasvehículos o aeronaves",0,0,0,0,0,0,0,0.02,0,0,0.02,-33.0766666666667,-71.4691666666667,"WGS84"
"Valparaíso","Valparaíso","Valparaíso","2002-2003","EL PAJONAL","2002-12-29","17:25",1175,"Sin alerta","No definido","Actividades recreativas",0,0,0,5,0,0,3,0,0,0,8,-33.065,-71.5975,"WGS84"
