"Region","Provincia","Comuna","Temporada","Nombre","Fecha","HoraInicio","DuracionMinutos","Alerta","Escenario","Causa","SuperficieQuemadaPinoA","SuperficieQuemadaPinoB","SuperficieQuemadaPinoC","SuperficieQuemadaEucalipto","SuperficieQuemadaOtrasPlantas","SuperficieQuemadaArbolado","SuperficieQuemadaMatorral","SuperficieQuemadaPastizal","SuperficieQuemadaAgricola","SuperficieQuemadaDesechos","SuperficieQuemadaTotal","Latitud","Longitud","Datum"
"Atacama","Copiapó","Copiapó","2015-2016","EL DATIL TORREBLANCA","2015-11-12","16:00",420,"Sin alerta","IFor-Vn","No definida",0,0,0,0,0.53,0.67,0,0.43,0,0,1.63,-27.3991666666667,-70.3019444444444,"WGS84"
"Atacama","Huasco","Freirina","2015-2016","LAS TABLAS FREIRINAS","2015-11-26","10:00",150,"Sin alerta","IFor-Vn","No definida",0,0,0,0,0.11,0.13,0,0.89,0,0,1.13,-28.5005555555556,-71.1341666666667,"WGS84"
"Atacama","Huasco","Vallenar","2015-2016","VENTANA","2015-11-28","12:00",453,"Sin alerta","IFor-Vn","No definida",0,0,0,0,0,0,1.3,0,0,0,1.3,-28.5572222222222,-70.8055555555556,"WGS84"
"Atacama","Huasco","Alto del Carmen","2015-2016","HURACAN","2015-12-01","14:30",560,"Sin alerta","IFIUr-Fo","No definida",0,0,0,0.8,1.6,6.8,8.3,0,0,0,17.5,-28.9655555555556,-70.4591666666667,"WGS84"
"Atacama","Huasco","Vallenar","2015-2016","MAITENCILLO","2015-12-12","00:00",900,"Sin alerta","IFor-Vn","No definida",0,0,0,0,0,0,18,0,0,0,18,-28.5116666666667,-70.8802777777778,"WGS84"
"Atacama","Huasco","Vallenar","2015-2016","QUEBRADA HONDA","2015-12-20","14:00",420,"Sin alerta","No definido","No definida",0,0,0,10.91,1.68,0,1.06,2.41,0,0,16.06,-28.5488888888889,-70.8672222222222,"WGS84"
"Atacama","Huasco","Freirina","2015-2016","LOS GUINDOS","2016-01-01","02:00",837,"Sin alerta","IFor-Vn","No definida",0,0,0,0,0,0,0.7,0,0,0,0.7,-28.5075,-71.0675,"WGS84"
"Atacama","Huasco","Freirina","2015-2016","LOS GUINDOS 2","2016-02-02","14:00",30,"Sin alerta","IFor-Vn","No definida",0,0,0,0,0,0,0.1,0,0,0,0.1,-28.5005555555556,-71.0808333333333,"WGS84"
"Atacama","Huasco","Vallenar","2015-2016","TORINO","2016-02-02","16:00",60,"Sin alerta","IFor-Vn","No definida",0,0,0,0,0,0.1,0,0,0,0,0.1,-28.5888888888889,-70.7388888888889,"WGS84"
"Atacama","Huasco","Vallenar","2015-2016","H.VENTANA 2-1-2-16","2016-02-02","15:20",160,"Sin alerta","IFor-Vn","No definida",0,0,0,0,0,0,0.99,0,0,0,0.99,-28.5580555555556,-70.8016666666667,"WGS84"
"Atacama","Huasco","Vallenar","2015-2016","PLANTA TRATAMIENTO","2016-01-27","15:30",210,"Sin alerta","IFor-Vn","No definida",0,0,0,0,0,0,11.5,0,0,0,11.5,-28.5597222222222,-70.7975,"WGS84"
"Atacama","Huasco","Vallenar","2015-2016","BUENA ESPERANZA","2016-01-31","21:50",176,"Sin alerta","IFIUr-Fo","No definida",0,0,0,0.13,0,0,0.08,0,0,0,0.21,-28.5580555555556,-70.84,"WGS84"
"Atacama","Huasco","Freirina","2015-2016","FREIRINA CESFAM","2016-02-06","00:00",180,"Sin alerta","IFIUr-Fo","No definida",0,0,0,0,0,0,0.1,0,0,0,0.1,-28.5088888888889,-71.0741666666667,"WGS84"
"Atacama","Huasco","Vallenar","2015-2016","IMPERIAL","2016-02-13","10:50",235,"Sin alerta","IFIUr-Fo","No definida",0,0,0,0,0,0,0.47,0,0,0,0.47,-28.6144444444444,-70.715,"WGS84"
"Atacama","Huasco","Freirina","2015-2016","FREIRINA AGUA SALADA","2016-02-15","12:25",45,"Sin alerta","IFIUr-Fo","No definida",0,0,0,0,0,0,0.11,0,0,0,0.11,-28.5116666666667,-71.0491666666667,"WGS84"
"Atacama","Huasco","Vallenar","2015-2016","PIRCAS","2016-02-21","19:16",51,"Sin alerta","IFIUr-Fo","No definida",0,0,0,0,0,0,0.05,0,0,0,0.05,-28.5794444444444,-70.7822222222222,"WGS84"
"Atacama","Huasco","Vallenar","2015-2016","JILGUERO","2016-02-23","14:33",66,"Sin alerta","IFor-Vn","No definida",0,0,0,0.02,0,0.07,0.04,0,0,0,0.13,-28.5947222222222,-70.7330555555556,"WGS84"
"Atacama","Huasco","Vallenar","2015-2016","TORINO 01-03-16","2016-03-01","19:58",87,"Sin alerta","IFor-Vn","No definida",0,0,0,0,0,0.2,0,0,0,0,0.2,-28.5880555555556,-70.7391666666667,"WGS84"
"Atacama","Huasco","Freirina","2015-2016","LOS GUINDOS 24-02-2016","2016-02-24","14:07",38,"Sin alerta","IFor-Vn","No definida",0,0,0,0,0,0.1,0,0,0,0,0.1,-28.5105555555556,-71.0688888888889,"WGS84"
"Atacama","Huasco","Freirina","2015-2016","VICUÑA 05-03-2016","2016-03-05","12:20",70,"Sin alerta","IFIUr-Fo","No definida",0,0,0,0.1,0,0,0,0,0,0,0.1,-28.5136111111111,-71.0488888888889,"WGS84"
"Atacama","Huasco","Vallenar","2015-2016","MAITENCILLO - VENTANA","2016-02-27","21:00",780,"Sin alerta","IFor-Vn","No definida",0,0,0,0,0,0,30,0,0,0,30,-28.5130555555556,-70.8719444444444,"WGS84"
"Atacama","Huasco","Vallenar","2015-2016","SAN ANTONIO","2016-03-22","16:00",60,"Sin alerta","IFIUr-Fo","No definida",0,0,0,0,0,0,0.4,0,0,0,0.4,-28.5677777777778,-70.8097222222222,"WGS84"
"Atacama","Huasco","Vallenar","2015-2016","JILGUERO 2","2016-04-07","22:25",55,"Sin alerta","IFor-Vn","No definida",0,0,0,0.1,0,0,0.2,0,0,0,0.3,-28.5952777777778,-70.7327777777778,"WGS84"
"Atacama","Huasco","Vallenar","2015-2016","PIRCAS 2","2016-04-10","19:38",76,"Sin alerta","No definido","No definida",0,0,0,1.61,0,0,0,0,0,0,1.61,-28.5844444444444,-70.7786111111111,"WGS84"
"Atacama","Huasco","Vallenar","2015-2016","IMPERIAL BAJO","2016-05-17","18:03",42,"Sin alerta","No definido","No definida",0,0,0,0.1,0,0,0,0,0,0,0.1,-28.61,-70.715,"WGS84"
"Atacama","Huasco","Vallenar","2015-2016","CALLEJON MARTINEZ","2016-05-27","19:00",174,"Sin alerta","IFIUr-Fo","No definida",0,0,0,0,0,0,0.15,0,0,0,0.15,-28.5677777777778,-70.775,"WGS84"
"Atacama","Huasco","Vallenar","2015-2016","ECHEVERRY","2016-06-22","17:45",119,"Sin alerta","IFor-Vn","No definida",0,0,0,0.1,0,0,0.46,0,0,0,0.56,-28.5558333333333,-70.8236111111111,"WGS84"
"Coquimbo","Choapa","Salamanca","2015-2016","TRANQUILLA","2015-09-02","16:30",330,"Sin alerta","IFor-Vn","Incendios de causa desconocida",0,0,0,0,0,0.1,0,0.5,0,0,0.6,-31.9216666666667,-70.6158333333333,"WGS84"
"Coquimbo","Limarí","Ovalle","2015-2016","SAN JULIÁN","2015-09-02","15:00",120,"Sin alerta","IFor-Vn","Faenas agrícolas y pecuarias",0,0,0,0,0,0,0,0,0,1,1,-30.6355555555556,-71.355,"WGS84"
"Coquimbo","Limarí","Ovalle","2015-2016","LA CHIMBA","2015-09-15","03:00",669,"Sin alerta","IFIUr-Fo","Faenas agrícolas y pecuarias",0,0,0,0.25,0,1.75,2,3,0,0,7,-30.6497222222222,-71.2455555555556,"WGS84"
"Coquimbo","Limarí","Monte Patria","2015-2016","CHILECITO","2015-09-22","14:00",220,"Sin alerta","IFor-Vn","Quema de desechos",0,0,0,0,0,2.5,3,2,0,0,7.5,-30.7577777777778,-70.8452777777778,"WGS84"
"Coquimbo","Limarí","Ovalle","2015-2016","LA CHIMBA I","2015-10-22","17:00",1380,"Sin alerta","IFor-PI","Incendios de causa desconocida",0,0,0,18,0,0,1,1,0,0,20,-30.6419444444444,-71.255,"WGS84"
"Coquimbo","Limarí","Ovalle","2015-2016","EL PEÑON","2015-11-05","13:50",250,"Sin alerta","IFor-PI","Quema de desechos",0,0,0,0.9,0,0,0,0.1,0,0,1,-30.6008333333333,-71.1822222222222,"WGS84"
"Coquimbo","Limarí","Ovalle","2015-2016","LAS PEÑAS","2015-11-30","18:30",955,"Sin alerta","IFor-PI","Incendios de causa desconocida",0,0,0,1.5,0,0,0.8,1,0,0,3.3,-30.7177777777778,-71.3413888888889,"WGS84"
"Coquimbo","Limarí","Ovalle","2015-2016","LAS PEÑAS 2","2015-12-01","13:30",320,"Sin alerta","IFor-PI","Incendios de causa desconocida",0,0,0,2,0,0,0,0,0,0,2,-30.7186111111111,-71.3422222222222,"WGS84"
"Coquimbo","Elqui","La Serena","2015-2016","VILLA PUNTA TEATINOS","2015-12-03","08:05",200,"Sin alerta","IFIUr-Fo","Incendios de causa desconocida",0,0,0,0,0,0,0.09,0.01,0,0,0.0999999999999999,-29.9233333333333,-71.2594444444444,"WGS84"
"Coquimbo","Elqui","La Serena","2015-2016","CUATRO ESQUINAS","2015-12-07","11:30",140,"Sin alerta","IFIUr-Fo","Faenas agrícolas y pecuarias",0,0,0,0,0,0.01,0.2,0.116,0,0,0.326,-29.9283333333333,-71.2716666666667,"WGS84"
"Coquimbo","Elqui","La Serena","2015-2016","CUATRO ESQUINAS 2","2015-12-08","13:30",123,"Sin alerta","IFIUr-Fo","Tránsito de personasvehículos o aeronaves",0,0,0,0,0,0,0.3179,0.1362,0,0,0.4541,-29.9263888888889,-71.2711111111111,"WGS84"
"Coquimbo","Elqui","La Serena","2015-2016","CUATRO ESQUINAS 3","2015-12-09","11:00",105,"Sin alerta","IFIUr-Fo","Incendios de causa desconocida",0,0,0,0,0,0,0.04,0.0032,0,0,0.0432,-29.9272222222222,-71.2713888888889,"WGS84"
"Coquimbo","Elqui","Coquimbo","2015-2016","RINCONADA","2015-12-10","11:00",64,"Sin alerta","IFor-Vn","Incendios intencionales",0,0,0,0,0,0,0.005,0,0,0.005,0.01,-30.0172222222222,-71.3394444444444,"WGS84"
"Coquimbo","Elqui","La Serena","2015-2016","CUATRO ESQUINAS 4","2015-12-10","13:25",243,"Sin alerta","IFIUr-Fo","Incendios intencionales",0,0,0,0,0,0,1.694,0.1,0,0,1.794,-29.9263888888889,-71.2716666666667,"WGS84"
"Coquimbo","Limarí","Ovalle","2015-2016","EL MORRO ALEGRE","2015-12-10","19:00",1080,"Sin alerta","IFor-Vn","Incendios de causa desconocida",0,0,0,0,0,5,1,0.3,0,0,6.3,-30.7302777777778,-71.2877777777778,"WGS84"
"Coquimbo","Limarí","Ovalle","2015-2016","EL MORRO ALEGRE 2","2015-12-14","13:45",315,"Sin alerta","IFor-Vn","Incendios de causa desconocida",0,0,0,0,0,3,0,0.5,0,0,3.5,-30.7352777777778,-71.2855555555556,"WGS84"
"Coquimbo","Elqui","La Serena","2015-2016","RUTA 41","2015-12-14","14:30",124,"Sin alerta","IFor-Vn","Incendios intencionales",0,0,0,0,0,0.01,0.026,0.02,0,0,0.0559999999999999,-29.9561111111111,-71.1272222222222,"WGS84"
"Coquimbo","Limarí","Ovalle","2015-2016","LA CHIMBA II","2015-12-14","18:00",150,"Sin alerta","IFIUr-Fo","Incendios de causa desconocida",0,0,0,0.5,0,0,0,0,0,0,0.5,-30.6202777777778,-71.2130555555556,"WGS84"
"Coquimbo","Limarí","Ovalle","2015-2016","GUAMALATA","2015-12-18","16:47",153,"Sin alerta","IFor-PI","Incendios de causa desconocida",0,0,0,0,0,0,0,0.5,0,0,0.5,-30.5755555555556,-71.1625,"WGS84"
"Coquimbo","Elqui","La Serena","2015-2016","RUTA 5 NORTE","2015-12-19","09:50",157,"Sin alerta","IFIUr-Fo","Otras actividades",0,0,0,0.0133,0,0.0132,0.0033,0.0034,0,0,0.0332,-29.9225,-71.2669444444444,"WGS84"
"Coquimbo","Elqui","La Serena","2015-2016","RUTA 5 NORTE 2","2015-12-19","17:55",90,"Sin alerta","IFIUr-Fo","Incendios intencionales",0,0,0,0,0,0.0024,0.0049,0.0171,0,0,0.0243999999999999,-29.9227777777778,-71.2672222222222,"WGS84"
"Coquimbo","Choapa","Los Vilos","2015-2016","LOS VILOS","2015-12-22","15:00",1270,"Sin alerta","IFor-Vn","Quema de desechos",0,0,0,0,0,0,14,5,0,0,19,-31.7033333333333,-71.5227777777778,"WGS84"
"Coquimbo","Limarí","Ovalle","2015-2016","CRUCE TABALI","2015-12-22","17:00",156,"Sin alerta","IFor-PI","Incendios de causa desconocida",0,0,0,0,0,0,0,0.7,0,0,0.7,-30.6636111111111,-71.385,"WGS84"
"Coquimbo","Limarí","Ovalle","2015-2016","RIVERA DEL RÍO","2015-12-24","11:00",440,"Sin alerta","IFor-Vn","Quema de desechos",0,0,0,0,0,0.5,1,0,0,0,1.5,-30.6152777777778,-71.1958333333333,"WGS84"
"Coquimbo","Elqui","La Serena","2015-2016","BELLAVISTA","2015-12-27","15:20",184,"Sin alerta","IFor-Vn","Quema de desechos",0,0,0,0,0,0,0,0.03,0,0,0.03,-29.9272222222222,-71.1780555555556,"WGS84"
"Coquimbo","Limarí","Ovalle","2015-2016","GUAMALATA 2","2015-12-28","22:00",920,"Sin alerta","IFor-Vn","Incendios de causa desconocida",0,0,0,0,0,0,0.2,0.3,0,0,0.5,-30.5775,-71.1702777777778,"WGS84"
"Coquimbo","Elqui","La Serena","2015-2016","PUERTAS DEL MAR","2015-12-31","17:30",167,"Sin alerta","IFIUr-Fo","Incendios intencionales",0,0,0,0,0,0.005,0.01,0.005,0,0,0.02,-29.8986111111111,-71.2688888888889,"WGS84"
"Coquimbo","Limarí","Ovalle","2015-2016","LA CHIMBA III","2016-01-01","16:35",95,"Sin alerta","IFor-PI","Incendios intencionales",0,0,0,0.5,0,0,0,0,0,0,0.5,-30.6255555555556,-71.2291666666667,"WGS84"
"Coquimbo","Elqui","La Serena","2015-2016","PARQUE COLL","2016-01-01","16:46",104,"Sin alerta","IFIUr-Fo","Incendios intencionales",0,0,0,0.1,0,0,0,0,0,0,0.1,-29.9111111111111,-71.2377777777778,"WGS84"
"Coquimbo","Elqui","La Serena","2015-2016","RUTA 5 NORTE 3","2016-01-01","18:36",82,"Sin alerta","IFIUr-Fo","Incendios intencionales",0,0,0,0,0,0.015,0.015,0.03,0,0,0.06,-29.9230555555556,-71.2672222222222,"WGS84"
"Coquimbo","Elqui","La Serena","2015-2016","ALTOVALSOL","2016-01-04","18:00",1037,"Sin alerta","IFor-Vn","Quema de desechos",0,0,0,0,0,0.06,0.04,0,0,0,0.1,-29.9433333333333,-71.0947222222222,"WGS84"
"Coquimbo","Elqui","Coquimbo","2015-2016","QUEBRADA MAITENCILLO","2016-01-07","13:30",210,"Sin alerta","IFor-Vn","Tránsito de personasvehículos o aeronaves",0,0,0,0,0,0,1,1.5,0,0,2.5,-30.1483333333333,-71.2180555555556,"WGS84"
"Coquimbo","Limarí","Ovalle","2015-2016","FUNDO LAS CHAPIANAS","2016-01-07","15:40",190,"Sin alerta","IFor-PI","Faenas forestales",0,0,0,0,0.3,0,0,0,0,0,0.3,-30.5177777777778,-71.1263888888889,"WGS84"
"Coquimbo","Choapa","Los Vilos","2015-2016","FUNDO CARACAS","2016-01-11","17:10",110,"Sin alerta","IFor-Vn","Accidentes eléctricos",0,0,0,0,0,0,0.3,0.7,0,0,1,-31.945,-71.475,"WGS84"
"Coquimbo","Elqui","Coquimbo","2015-2016","QUEBRADA EL CULEBRÓN","2016-01-13","12:45",127,"Sin alerta","IFor-Vn","Actividades recreativas",0,0,0,0,0,0,0,0.06,0,0,0.06,-29.9747222222222,-71.3147222222222,"WGS84"
"Coquimbo","Elqui","La Serena","2015-2016","PARQUE COLL 2","2016-01-14","13:30",220,"Sin alerta","IFIUr-Fo","Incendios intencionales",0,0,0,0,0,0.1,0.1,0.15,0,0,0.35,-29.9122222222222,-71.2302777777778,"WGS84"
"Coquimbo","Elqui","Coquimbo","2015-2016","LA CANTERA","2016-01-15","12:45",273,"Sin alerta","IFor-Vn","Tránsito de personasvehículos o aeronaves",0,0,0,3.7,0,0,0,0,0,0,3.7,-29.9863888888889,-71.2655555555556,"WGS84"
"Coquimbo","Elqui","La Serena","2015-2016","ALGARROBITO","2016-01-15","16:20",1235,"Sin alerta","IFor-Vn","Quema de desechos",0,0,0,0.4,0,0,0,0.1,0,0,0.5,-29.9519444444444,-71.1319444444444,"WGS84"
"Coquimbo","Choapa","Illapel","2015-2016","BELLAVISTA","2016-01-15","16:30",1240,"Sin alerta","IFor-Vn","Incendios de causa desconocida",0,0,0,4,0,0,1,1.5,0,0,6.5,-31.6636111111111,-71.2191666666667,"WGS84"
"Coquimbo","Elqui","La Serena","2015-2016","ALGARROBITO 2","2016-01-16","14:15",261,"Sin alerta","IFor-Vn","Tránsito de personasvehículos o aeronaves",0,0,0,0.107,0,0,0,0,0,0,0.107,-29.9522222222222,-71.1313888888889,"WGS84"
"Coquimbo","Elqui","La Serena","2015-2016","ALGARROBITO 3","2016-01-16","19:00",50,"Sin alerta","IFor-Vn","Tránsito de personasvehículos o aeronaves",0,0,0,0.042,0,0,0,0,0,0,0.042,-29.9527777777778,-71.1311111111111,"WGS84"
"Coquimbo","Elqui","Coquimbo","2015-2016","QUEBRADA EL CULEBRÓN 2","2016-01-19","15:00",210,"Sin alerta","IFor-Vn","Quema de desechos",0,0,0,0,0,0,0.01,0,0,0,0.01,-29.9663888888889,-71.3147222222222,"WGS84"
"Coquimbo","Elqui","Coquimbo","2015-2016","ROSARIO DE PEÑUELAS","2016-01-21","15:30",180,"Sin alerta","IFIUr-Fo","Tránsito de personasvehículos o aeronaves",0,0,0,0,0,0.1,0,0.0432,0,0,0.1432,-29.965,-71.2838888888889,"WGS84"
"Coquimbo","Elqui","Coquimbo","2015-2016","EL SAUCE","2016-01-22","18:30",1003,"Sin alerta","IFIUr-Fo","Actividades recreativas",0,0,0,0,0,0,0,0.4,0,0,0.4,-29.9911111111111,-71.3161111111111,"WGS84"
"Coquimbo","Limarí","Ovalle","2015-2016","LA CHIMBA 4","2016-01-24","14:20",180,"Sin alerta","IFor-Vn","Incendios de causa desconocida",0,0,0,0.5,0,0,0.5,0,0,0,1,-30.6488888888889,-71.2869444444444,"WGS84"
"Coquimbo","Elqui","La Serena","2015-2016","QUILACAN","2016-01-24","14:00",127,"Sin alerta","IFor-Vn","Tránsito de personasvehículos o aeronaves",0,0,0,2,0,0,1,1,0,0,4,-29.9569444444444,-71.1255555555556,"WGS84"
"Coquimbo","Elqui","Coquimbo","2015-2016","SOLE DI MARE","2016-01-25","14:18",182,"Sin alerta","IFIUr-Fo","Incendios de causa desconocida",0,0,0,0,0,0.01,0,0,0,0,0.01,-29.9569444444444,-71.3058333333333,"WGS84"
"Coquimbo","Elqui","Coquimbo","2015-2016","ROSARIO DE PEÑUELAS 2","2016-01-27","11:50",147,"Sin alerta","IFIUr-Fo","Tránsito de personasvehículos o aeronaves",0,0,0,0.02,0,0,0,0,0,0,0.02,-29.9638888888889,-71.2825,"WGS84"
"Coquimbo","Elqui","La Serena","2015-2016","PARQUE COLL 3","2016-01-31","17:45",84,"Sin alerta","IFIUr-Fo","Incendios intencionales",0,0,0,0,0,0,0,0,0,0.0124,0.0124,-29.9094444444444,-71.2402777777778,"WGS84"
"Coquimbo","Limarí","Ovalle","2015-2016","LOS OLIVOS","2016-02-01","17:00",210,"Sin alerta","IFor-Vn","Tránsito de personasvehículos o aeronaves",0,0,0,0,0,0,0,9,0,0,9,-30.5691666666667,-71.4847222222222,"WGS84"
"Coquimbo","Elqui","La Serena","2015-2016","PARQUE COLL 4","2016-02-02","17:50",1088,"Sin alerta","IFIUr-Fo","Incendios intencionales",0,0,0,0.03,0,0,0.0458,0.08,0,0.09,0.2458,-29.9102777777778,-71.2391666666667,"WGS84"
"Coquimbo","Elqui","Coquimbo","2015-2016","HUMEDAL LA CANTERA","2016-02-03","12:45",105,"Sin alerta","IFIUr-Fo","Incendios intencionales",0,0,0,0,0,0,0,0.09,0,0,0.09,-29.9608333333333,-71.3152777777778,"WGS84"
"Coquimbo","Elqui","La Serena","2015-2016","ALGARROBITO 4","2016-02-03","14:45",252,"Sin alerta","IFor-Vn","Incendios intencionales",0,0,0,0.4,0,0,0,0,0,0,0.4,-29.9508333333333,-71.1183333333333,"WGS84"
"Coquimbo","Limarí","Ovalle","2015-2016","SAN JOSÉ","2016-02-03","16:25",170,"Sin alerta","IFor-Vn","Incendios de causa desconocida",0,0,0,0.5,0,0.3,0.2,0,0,0,1,-30.6138888888889,-71.1283333333333,"WGS84"
"Coquimbo","Elqui","Coquimbo","2015-2016","LA CANTERA 2","2016-02-03","18:00",1112,"Sin alerta","IFIUr-Fo","Tránsito de personasvehículos o aeronaves",0,0,0,3.5,0,0,0,0.5,0,0,4,-29.9855555555556,-71.2713888888889,"WGS84"
"Coquimbo","Limarí","Ovalle","2015-2016","SAN JOSÉ 2","2016-02-05","12:10",110,"Sin alerta","IFor-Vn","Incendios de causa desconocida",0,0,0,0,0,0,0,0.03,0,0,0.03,-30.61,-71.1316666666667,"WGS84"
"Coquimbo","Choapa","Los Vilos","2015-2016","LO CLAUDIO","2016-02-05","12:30",220,"Sin alerta","IFor-Vn","Quema de desechos",0,0,0,0,0,0.3,0.4,0.3,0,0,1,-32.1627777777778,-71.3663888888889,"WGS84"
"Coquimbo","Elqui","Coquimbo","2015-2016","LOS PESCADORES","2016-02-05","15:00",149,"Sin alerta","IFIUr-Fo","Actividades recreativas",0,0,0,0,0,0,0.1,0.05,0,0,0.15,-29.9530555555556,-71.2933333333333,"WGS84"
"Coquimbo","Elqui","La Serena","2015-2016","CAMINO LAS PARCELAS","2016-02-05","15:30",1264,"Sin alerta","IFIUr-Fo","Incendios intencionales",0,0,0,0.05,0,0,0,0.05,0,0,0.1,-29.9238888888889,-71.2197222222222,"WGS84"
"Coquimbo","Elqui","La Serena","2015-2016","PARQUE COLL 5","2016-02-05","16:20",251,"Sin alerta","IFIUr-Fo","Incendios intencionales",0,0,0,0,0,0.4,0.3,0.3,0,0,1,-29.9155555555556,-71.2302777777778,"WGS84"
"Coquimbo","Elqui","La Serena","2015-2016","PARQUE COLL 6","2016-02-06","12:00",48,"Alerta amarilla","IFIUr-Fo","Incendios intencionales",0,0,0,6,0,0,2,2,0,0,10,-29.9108333333333,-71.2336111111111,"WGS84"
"Coquimbo","Elqui","La Serena","2015-2016","QUEBRADA DE TALCA","2016-02-09","12:30",373,"Sin alerta","IFor-Vn","Incendios de causa desconocida",0,0,0,0,0,0,0.5,0.1,0,0,0.6,-29.9991666666667,-71.0216666666667,"WGS84"
"Coquimbo","Elqui","Coquimbo","2015-2016","LOS GOMEROS","2016-02-11","11:45",107,"Sin alerta","IFor-Vn","Incendios intencionales",0,0,0,0.007,0,0,0,0.003,0,0,0.01,-29.9886111111111,-71.3116666666667,"WGS84"
"Coquimbo","Elqui","Coquimbo","2015-2016","LAS TOTORAS","2016-02-11","13:00",72,"Sin alerta","IFor-Vn","Incendios intencionales",0,0,0,0,0,0,0.02,0,0,0,0.02,-29.9730555555556,-71.3172222222222,"WGS84"
"Coquimbo","Elqui","Coquimbo","2015-2016","REGIMIENTO ARICA","2016-02-11","15:00",130,"Sin alerta","IFIUr-Fo","Incendios intencionales",0,0,0,0,0,0,0.01,0,0,0,0.01,-29.9494444444444,-71.2772222222222,"WGS84"
"Coquimbo","Elqui","La Serena","2015-2016","CAMINO LAS PARCELAS 2","2016-02-11","17:00",68,"Sin alerta","IFor-Vn","Incendios intencionales",0,0,0,0.06,0,0,0,0,0,0,0.06,-29.9238888888889,-71.22,"WGS84"
"Coquimbo","Elqui","La Serena","2015-2016","PARQUE COLL 7","2016-02-11","18:50",75,"Sin alerta","IFIUr-Fo","Incendios intencionales",0,0,0,0.01,0,0,0,0,0,0,0.01,-29.9111111111111,-71.2375,"WGS84"
"Coquimbo","Elqui","Coquimbo","2015-2016","LOS PESCADORES 2","2016-02-11","19:40",203,"Sin alerta","IFIUr-Fo","Incendios intencionales",0,0,0,0,0.01,0,0,0,0,0,0.01,-29.9530555555556,-71.2933333333333,"WGS84"
"Coquimbo","Elqui","La Serena","2015-2016","PARQUE COLL 8","2016-02-12","09:00",203,"Sin alerta","IFIUr-Fo","Incendios intencionales",0,0,0,0.01,0,0,0,0,0,0,0.01,-29.9102777777778,-71.2386111111111,"WGS84"
"Coquimbo","Limarí","Ovalle","2015-2016","SAN JULIAN","2016-02-17","15:50",1250,"Sin alerta","IFor-Vn","Faenas agrícolas y pecuarias",0,0,0,4,0,3,8,0,0,0,15,-30.6391666666667,-71.3588888888889,"WGS84"
"Coquimbo","Elqui","La Serena","2015-2016","PARQUE CENDYR","2016-02-17","17:00",183,"Sin alerta","IFIUr-Fo","Incendios intencionales",0,0,0,0.1,0,0,0.1,0.3,0,0,0.5,-29.9247222222222,-71.2405555555556,"WGS84"
"Coquimbo","Elqui","Coquimbo","2015-2016","LAS GARZAS","2016-02-17","20:00",82,"Sin alerta","IFIUr-Fo","Incendios intencionales",0,0,0,0,0,0,0.05,0.05,0,0,0.1,-29.9519444444444,-71.2866666666667,"WGS84"
"Coquimbo","Limarí","Ovalle","2015-2016","CAMPO LINDO","2016-02-18","15:00",210,"Sin alerta","IFor-Vn","Quema de desechos",0,0,0,0,0,0,0.02,0,0,0,0.02,-30.7405555555556,-71.3691666666667,"WGS84"
"Coquimbo","Elqui","La Serena","2015-2016","FUNDO SANTA ISABEL","2016-02-18","17:40",120,"Sin alerta","IFor-Vn","Incendios intencionales",0,0,0,0.3,0,0,0,0,0,0,0.3,-29.9344444444444,-71.2077777777778,"WGS84"
"Coquimbo","Elqui","Coquimbo","2015-2016","CULEBRON","2016-02-19","18:30",1035,"Sin alerta","IFIUr-Fo","Incendios intencionales",0,0,0,0,0,0,0.8,0.4,0,0,1.2,-29.9841666666667,-71.2938888888889,"WGS84"
"Coquimbo","Limarí","Ovalle","2015-2016","BOSQUE LAS BRUJAS","2016-02-20","18:00",110,"Sin alerta","IFIUr-Fo","Incendios de causa desconocida",0,0,0,0,0,0,0.01,0,0,0,0.01,-30.5894444444444,-71.1769444444444,"WGS84"
"Coquimbo","Elqui","Coquimbo","2015-2016","CULEBRON 2","2016-02-21","17:20",112,"Sin alerta","IFor-Vn","Incendios intencionales",0,0,0,0,0,0,0.005,0.005,0,0,0.01,-29.9836111111111,-71.2941666666667,"WGS84"
"Coquimbo","Limarí","Ovalle","2015-2016","SIFÓN DE LA PALOMA","2016-02-23","16:15",160,"Alerta amarilla","IFor-Vn","Actividades recreativas",0,0,0,0,0,17,15,4,0,0,36,-30.6972222222222,-71.0377777777778,"WGS84"
"Coquimbo","Elqui","La Serena","2015-2016","ALFALFARES","2016-02-25","15:30",1312,"Sin alerta","IFor-Vn","Tránsito de personasvehículos o aeronaves",0,0,0,1,0,0,0,0.1,0,0,1.1,-29.9152777777778,-71.1844444444444,"WGS84"
"Coquimbo","Elqui","La Serena","2015-2016","ALFALFARES 2","2016-02-27","13:00",375,"Sin alerta","IFor-Vn","Faenas agrícolas y pecuarias",0,0,0,0,0,0,0.01,0,0,0.1,0.11,-29.9155555555556,-71.1852777777778,"WGS84"
"Coquimbo","Elqui","La Serena","2015-2016","ALFALFARES 3","2016-02-29","09:20",265,"Sin alerta","IFor-Vn","Faenas forestales",0,0,0,0,0,0.04,0.07,0,0,0.19,0.3,-29.9147222222222,-71.1855555555556,"WGS84"
"Coquimbo","Limarí","Ovalle","2015-2016","LA CHIMBA 4","2016-02-28","19:00",1113,"Sin alerta","IFIUr-Fo","Incendios de causa desconocida",0,0,0,1.2,0,0,0,0,0,0,1.2,-30.6252777777778,-71.2283333333333,"WGS84"
"Coquimbo","Elqui","La Serena","2015-2016","PARQUE COLL 9","2016-02-29","16:55",1201,"Sin alerta","IFIUr-Fo","Tránsito de personasvehículos o aeronaves",0,0,0,0.4,0,0,0,0.3,0,0,0.7,-29.9094444444444,-71.2408333333333,"WGS84"
"Coquimbo","Elqui","La Serena","2015-2016","PARQUE CENDYR 2","2016-02-29","18:00",1070,"Sin alerta","IFIUr-Fo","Tránsito de personasvehículos o aeronaves",0,0,0,0.5,0,0,0.3,0.2,0,0,1,-29.9175,-71.2433333333333,"WGS84"
"Coquimbo","Limarí","Ovalle","2015-2016","LAS SOSAS","2016-03-04","16:30",225,"Sin alerta","IFor-Vn","Faenas agrícolas y pecuarias",0,0,0,0,0,0,0.4,0.1,0,0,0.5,-30.6194444444444,-71.3972222222222,"WGS84"
"Coquimbo","Elqui","La Serena","2015-2016","RODILLO","2016-03-06","12:10",80,"Sin alerta","IFor-Vn","Tránsito de personasvehículos o aeronaves",0,0,0,0,0,0,0.02,0,0,0,0.02,-29.8891666666667,-71.2705555555556,"WGS84"
"Coquimbo","Elqui","La Serena","2015-2016","ALGARROBITO 5","2016-03-08","10:50",175,"Sin alerta","IFor-Vn","Tránsito de personasvehículos o aeronaves",0,0,0,0.1,0,0,0.04,0,0,0,0.14,-29.95,-71.1338888888889,"WGS84"
"Coquimbo","Elqui","La Serena","2015-2016","ALGARROBITO 6","2016-03-08","16:00",1226,"Sin alerta","IFor-Vn","Tránsito de personasvehículos o aeronaves",0,0,0,0.24,0,0,0,0,0,0,0.24,-29.9505555555556,-71.1336111111111,"WGS84"
"Coquimbo","Elqui","La Serena","2015-2016","ALGARROBITO 7","2016-03-08","18:20",1086,"Sin alerta","IFor-Vn","Tránsito de personasvehículos o aeronaves",0,0,0,0.1,0,0,0.08,0,0,0,0.18,-29.9519444444444,-71.1313888888889,"WGS84"
"Coquimbo","Limarí","Ovalle","2015-2016","MALL PLAZA","2016-03-13","15:30",96,"Sin alerta","IFIUr-Fo","Incendios de causa desconocida",0,0,0,0.1,0,0,0,0.4,0,0,0.5,-30.6005555555556,-71.1825,"WGS84"
"Coquimbo","Elqui","Vicuña","2015-2016","EL TAMBO","2016-03-18","18:00",1200,"Sin alerta","IFor-Vn","Faenas agrícolas y pecuarias",0,0,0,0.05,0,0,1,0,0,0,1.05,-30.0233333333333,-70.7916666666667,"WGS84"
"Coquimbo","Limarí","Ovalle","2015-2016","LA CHIMBA 5","2016-03-25","12:00",213,"Sin alerta","IFor-Vn","Incendios de causa desconocida",0,0,0,0.3,0,0,0.3,0,0,0,0.6,-30.6177777777778,-71.2280555555556,"WGS84"
"Coquimbo","Limarí","Ovalle","2015-2016","PARQUE LOS PEÑONES","2016-03-27","13:30",56,"Sin alerta","IFIUr-Fo","Incendios de causa desconocida",0,0,0,0,0,0,0.3,0,0,0,0.3,-30.6,-71.1844444444444,"WGS84"
"Coquimbo","Elqui","Coquimbo","2015-2016","LA PAMPA","2016-04-04","13:50",145,"Sin alerta","IFIUr-Fo","Tránsito de personasvehículos o aeronaves",0,0,0,0,0,0,0.2,0,0,0,0.2,-29.945,-71.2708333333333,"WGS84"
"Coquimbo","Limarí","Ovalle","2015-2016","POTRERILLOS BAJOS","2016-04-04","03:15",555,"Sin alerta","IFor-Vn","Incendios de causa desconocida",0,0,0,0,0,0.3,0.2,0,0,0,0.5,-30.6183333333333,-71.1933333333333,"WGS84"
"Coquimbo","Elqui","Coquimbo","2015-2016","FUNDO SAN MARTIN","2016-04-25","13:00",282,"Sin alerta","IFor-Vn","Tránsito de personasvehículos o aeronaves",0,0,0,0.18,0,0,0.07,0,0,0,0.25,-29.9872222222222,-71.3052777777778,"WGS84"
"Valparaíso","Valparaíso","Viña del Mar","2015-2016","POB. JUAN PABLO SEGUNDO","2015-07-01","00:10",555,"Sin alerta","IFIUr-Fo","Tránsito de personasvehículos o aeronaves",0,0,0,0,0,0,0.02,0.03,0,0,0.05,-33.0575,-71.5583333333333,"WGS84"
"Valparaíso","Valparaíso","Valparaíso","2015-2016","POTRERO LAS VACAS","2015-07-02","10:10",230,"Sin alerta","IFor-PI","Tránsito de personasvehículos o aeronaves",0,0.03,0,0.05,0,0,0,0,0,0,0.08,-33.1619444444444,-71.5733333333333,"WGS84"
"Valparaíso","Valparaíso","Valparaíso","2015-2016","SECTOR LA MARIPOSA","2015-07-02","10:20",186,"Sin alerta","IFor-PI","Tránsito de personasvehículos o aeronaves",0,0.02,0,0,0,0,0,0,0,0.03,0.05,-33.1627777777778,-71.5777777777778,"WGS84"
"Valparaíso","Valparaíso","Concón","2015-2016","LOS TRACEANOS  LAJARILLA","2015-07-02","16:12",73,"Sin alerta","IFor-Vn","Tránsito de personasvehículos o aeronaves",0,0,0,0,0,0,0.08,0.07,0,0,0.15,-32.9744444444444,-71.4930555555556,"WGS84"
"Valparaíso","Marga Marga","Limache","2015-2016","ESTERO LIMACHE - PARADERO 6","2015-07-02","18:00",115,"Sin alerta","IFor-Vn","Faenas forestales",0,0,0,0,0,0,0.15,0.2,0,0,0.35,-32.9980555555556,-71.2569444444444,"WGS84"
"Valparaíso","Valparaíso","Valparaíso","2015-2016","TRANQUE LA LUZ PARQUE NORTE","2015-07-03","06:15",945,"Sin alerta","IFor-PI","Tránsito de personasvehículos o aeronaves",0,0.1,0,0.4,0,0,0,0.1,0,0,0.6,-33.135,-71.5786111111111,"WGS84"
"Valparaíso","Valparaíso","Valparaíso","2015-2016","TRANQUE LA LUZ PARQUE NORTE 2","2015-07-03","08:58",782,"Sin alerta","IFor-PI","Tránsito de personasvehículos o aeronaves",0,0,0.1,0.2,0,0,0,0.1,0,0,0.4,-33.1319444444444,-71.5808333333333,"WGS84"
"Valparaíso","Valparaíso","Puchuncavi","2015-2016","CAMINO LOS ALERCES CAMPICHE","2015-07-03","12:39",91,"Sin alerta","IFor-PI","Tránsito de personasvehículos o aeronaves",0,0,0,0.04,0,0,0,0.03,0,0,0.07,-32.7411111111111,-71.4569444444444,"WGS84"
"Valparaíso","Petorca","La Ligua","2015-2016","QUEBRADA LOS ROMEROS","2015-07-03","16:00",180,"Sin alerta","IFor-Vn","Incendios intencionales",0,0,0,0,0,19,30,15.3,0,0,64.3,-32.2869444444444,-71.1652777777778,"WGS84"
"Valparaíso","Quillota","Quillota","2015-2016","LA CAPILLA","2015-07-10","15:30",69,"Sin alerta","IFor-Vn","Tránsito de personasvehículos o aeronaves",0,0,0,0,0,0,0.01,0.01,0,0,0.02,-32.8722222222222,-71.2652777777778,"WGS84"
"Valparaíso","Marga Marga","Limache","2015-2016","PUENTE DE INCAS","2015-07-10","22:00",1278,"Sin alerta","IFor-Vn","Incendios intencionales",0,0,0,0,0,0,0.2,0,0,0,0.2,-32.9241666666667,-71.4252777777778,"WGS84"
"Valparaíso","Valparaíso","Valparaíso","2015-2016","POB. VISTA AL MAR","2015-07-11","18:47",66,"Sin alerta","IFor-Vn","Tránsito de personasvehículos o aeronaves",0,0,0,0,0,0,0.02,0.02,0,0,0.04,-33.0572222222222,-71.6355555555556,"WGS84"
"Valparaíso","Marga Marga","Olmué","2015-2016","EL REFUGIO LAS PALMAS","2015-07-18","18:12",1038,"Sin alerta","IFor-Vn","Tránsito de personasvehículos o aeronaves",0,0,0,0,0,0,0.02,0.04,0,0,0.06,-33.0166666666667,-71.07,"WGS84"
"Valparaíso","Marga Marga","Quilpué","2015-2016","LA CANTERA LAS ROZAS","2015-07-18","21:46",50,"Sin alerta","IFor-Vn","Tránsito de personasvehículos o aeronaves",0,0,0,0,0,0,0,0.02,0,0.01,0.03,-33.0641666666667,-71.4502777777778,"WGS84"
"Valparaíso","Quillota","Quillota","2015-2016","MONASTERIO RAUTEN","2015-07-24","15:40",68,"Sin alerta","IFor-Vn","Tránsito de personasvehículos o aeronaves",0,0,0,0,0,0,0.01,0.04,0,0,0.05,-32.8766666666667,-71.2738888888889,"WGS84"
"Valparaíso","Valparaíso","Viña del Mar","2015-2016","LACUCA LAJARILLA","2015-08-25","15:15",65,"Sin alerta","IFor-Vn","Tránsito de personasvehículos o aeronaves",0,0,0,0,0,0,0.01,0.04,0,0,0.05,-32.9761111111111,-71.4991666666667,"WGS84"
"Valparaíso","Valparaíso","Puchuncavi","2015-2016","EL RINCON","2015-08-25","16:28",76,"Sin alerta","IFor-PI","Tránsito de personasvehículos o aeronaves",0,0,0,0.01,0,0,0,0.02,0,0,0.03,-32.72,-71.4008333333333,"WGS84"
"Valparaíso","Petorca","Papudo","2015-2016","QUEBRADA EL TIGRE","2015-08-29","12:00",284,"Sin alerta","IFor-Vn","Tránsito de personasvehículos o aeronaves",0,0,0,0,0,6.5,0,1.5,0,0,8,-32.5477777777778,-71.4230555555555,"WGS84"
"Valparaíso","Quillota","Quillota","2015-2016","FUNDO LAS CRUZADAS","2015-08-30","14:53",88,"Sin alerta","IFor-Vn","Faenas forestales",0,0,0,0,0,0,0,0.05,0,0.15,0.2,-32.9469444444444,-71.2558333333333,"WGS84"
"Valparaíso","Isla de Pascua","Isla de Pascua","2015-2016","VAITOIRI","2015-08-30","20:20",190,"Sin alerta","IFor-Vn","Tránsito de personasvehículos o aeronaves",0,0,0,0,0,0,0,80,0,0,80,-27.1311111111111,-109.286666666667,"WGS84"
"Valparaíso","San Antonio","Cartagena","2015-2016","IGLESIA CONCEPCION LO ZARATE","2015-08-31","12:10",212,"Sin alerta","IFor-PI","Tránsito de personasvehículos o aeronaves",0,0,0,0,0,0,0,0.08,0,0.12,0.2,-33.5338888888889,-71.5205555555556,"WGS84"
"Valparaíso","Valparaíso","Valparaíso","2015-2016","TUNEL LAS ANIMAS","2015-08-31","15:00",57,"Sin alerta","IFor-Vn","Faenas forestales",0,0,0,0,0,0.15,0,0.05,0,0,0.2,-33.0566666666667,-71.6533333333333,"WGS84"
"Valparaíso","San Antonio","Cartagena","2015-2016","LO ZARATE 2","2015-08-31","17:45",1381,"Sin alerta","IFor-Vn","Faenas forestales",0,0,0,0,0,0,0,0,0,1,1,-33.5344444444444,-71.5183333333333,"WGS84"
"Valparaíso","Isla de Pascua","Isla de Pascua","2015-2016","VAITOIRI","2015-09-01","12:50",180,"Sin alerta","IFor-Vn","Tránsito de personasvehículos o aeronaves",0,0,0,0,0,0,0,20,0,0,20,-27.1311111111111,-109.285833333333,"WGS84"
"Valparaíso","Valparaíso","Casablanca","2015-2016","PARCELA 9999 CUESTA IBACACHE","2015-09-01","16:35",1075,"Sin alerta","IFor-PI","Faenas agrícolas y pecuarias",0,0,0,0.05,0,0,0.05,0,0,0,0.1,-33.4344444444444,-71.3688888888889,"WGS84"
"Valparaíso","Isla de Pascua","Isla de Pascua","2015-2016","MAUNGA TERE VAKA","2015-09-02","12:25",140,"Sin alerta","IFor-Vn","Tránsito de personasvehículos o aeronaves",0,0,0,0,0,0,0,15,0,0,15,-27.0947222222222,-109.385277777778,"WGS84"
"Valparaíso","Quillota","Quillota","2015-2016","MOTEL FLAMINGO TABOLANGO","2015-09-02","20:15",190,"Sin alerta","IFor-Vn","Tránsito de personasvehículos o aeronaves",0,0,0,0,0,0,0.1,0.2,0,0,0.3,-32.9330555555556,-71.3469444444444,"WGS84"
"Valparaíso","Valparaíso","Viña del Mar","2015-2016","ESTERO REÑACA ALTO CALLE 15","2015-09-03","10:08",82,"Sin alerta","IFor-Vn","Tránsito de personasvehículos o aeronaves",0,0,0,0,0,0,0.02,0.03,0,0,0.05,-32.9922222222222,-71.4780555555556,"WGS84"
"Valparaíso","Isla de Pascua","Isla de Pascua","2015-2016","TEPITOKURA","2015-09-08","16:00",150,"Sin alerta","IFor-Vn","Tránsito de personasvehículos o aeronaves",0,0,0,0,0,0,0,12,0,0,12,-27.0866666666667,-109.302222222222,"WGS84"
"Valparaíso","Petorca","Petorca","2015-2016","HIERRO VIEJO","2015-09-16","14:20",1120,"Sin alerta","IFor-Vn","Tránsito de personasvehículos o aeronaves",0,0,0,0,0,0,0,2,0,0,2,-32.2786111111111,-71.0175,"WGS84"
"Valparaíso","Isla de Pascua","Isla de Pascua","2015-2016","MAUNGA TERE VAKA","2015-09-16","15:25",110,"Sin alerta","IFor-Vn","Tránsito de personasvehículos o aeronaves",0,0,0,0,0,0,0,25,0,0,25,-27.1097222222222,-109.383611111111,"WGS84"
"Valparaíso","Isla de Pascua","Isla de Pascua","2015-2016","MAUNGA-PUI","2015-09-20","18:50",70,"Sin alerta","IFor-Vn","Tránsito de personasvehículos o aeronaves",0,0,0,0,0,0,0,25,0,0,25,-27.1030555555556,-109.332777777778,"WGS84"
"Valparaíso","Isla de Pascua","Isla de Pascua","2015-2016","VAITEA-MAUNGA KAUHANGA O VARU","2015-09-22","13:55",350,"Sin alerta","IFor-Vn","Tránsito de personasvehículos o aeronaves",0,0,0,50,0,0,0,10,0,0,60,-27.1283333333333,-109.369444444444,"WGS84"
"Valparaíso","San Antonio","Santo Domingo","2015-2016","CONDOMINIO EL GRAN EUCALIPTUS","2015-09-25","11:00",356,"Sin alerta","IFor-Vn","Faenas forestales",0,0,0,0,0,0,0,0,0,0.04,0.04,-33.7713888888889,-71.5772222222222,"WGS84"
"Valparaíso","Isla de Pascua","Isla de Pascua","2015-2016","TARARAINA","2015-09-27","17:50",130,"Sin alerta","IFor-Vn","Tránsito de personasvehículos o aeronaves",0,0,0,0,0,0,0,15,0,0,15,-27.1563888888889,-109.412222222222,"WGS84"
"Valparaíso","Valparaíso","Quintero","2015-2016","CLUB AEROMODELISMO","2015-10-08","11:40",165,"Sin alerta","IFor-Vn","Tránsito de personasvehículos o aeronaves",0,0,0,0,0,0,0.06,0.02,0,0,0.08,-32.9061111111111,-71.44,"WGS84"
"Valparaíso","San Antonio","San Antonio","2015-2016","ALTO SAN JUAN","2015-10-08","16:10",130,"Sin alerta","IFor-PI","Faenas forestales",0,0,0,0.3,0,0,0,0,0,0.2,0.5,-33.6361111111111,-71.5633333333333,"WGS84"
"Valparaíso","Valparaíso","Valparaíso","2015-2016","LOS COLIGUES","2015-10-11","11:55",106,"Sin alerta","IFor-PI","Faenas forestales",0,0,0,0.1,0,0,0,0,0,0,0.1,-33.22,-71.5838888888889,"WGS84"
"Valparaíso","San Felipe de Aconcagua","Catemu","2015-2016","SAN JOSE","2015-10-13","16:45",255,"Sin alerta","IFor-Vn","Tránsito de personasvehículos o aeronaves",0,0,0,0,0,0.5,1,0,0,0,1.5,-32.7791666666667,-70.9125,"WGS84"
"Valparaíso","Quillota","Hijuelas","2015-2016","MEDIA LUNA RABUCO","2015-10-13","16:48",42,"Sin alerta","IFor-Vn","Tránsito de personasvehículos o aeronaves",0,0,0,0,0,0,0,0.02,0,0,0.02,-32.8533333333333,-71.1280555555556,"WGS84"
"Valparaíso","Valparaíso","Puchuncavi","2015-2016","RUTA F-20 PUCALAN","2015-10-16","14:20",100,"Sin alerta","IFor-Vn","Tránsito de personasvehículos o aeronaves",0,0,0,0,0,0,0,0.03,0,0,0.03,-32.7413888888889,-71.3636111111111,"WGS84"
"Valparaíso","Isla de Pascua","Isla de Pascua","2015-2016","MAUNGA TERE VAKA","2015-10-20","11:20",100,"Sin alerta","IFor-Vn","Tránsito de personasvehículos o aeronaves",0,0,0,0,0,0,0,0.5,0,0,0.5,-27.1105555555556,-109.379722222222,"WGS84"
"Valparaíso","Isla de Pascua","Isla de Pascua","2015-2016","HONGA  A","2015-10-21","10:00",360,"Sin alerta","IFor-Vn","Tránsito de personasvehículos o aeronaves",0,0,0,2,0,0,0,0,0,0,2,-27.0955555555556,-109.338888888889,"WGS84"
"Valparaíso","San Antonio","El Quisco","2015-2016","CANCHA EL CARDONAL (VERTEDERO TOTORAL)","2015-11-01","01:03",995,"Sin alerta","IFor-PI","Quema de desechos",0,0,0,0,0,0,0,0.2,0,1.5,1.7,-33.4316666666667,-71.6441666666667,"WGS84"
"Valparaíso","Quillota","La Cruz","2015-2016","PUENTE LO ROJAS","2015-11-04","13:10",160,"Sin alerta","IFor-Vn","Quema de desechos",0,0,0,0,0,0,0,0.02,0,0.08,0.1,-32.8152777777778,-71.2425,"WGS84"
"Valparaíso","Valparaíso","Valparaíso","2015-2016","TIERRAS ROJAS-LAGUNA VERDE","2015-11-05","08:50",200,"Sin alerta","IFor-Vn","Faenas forestales",0,0,0,0,0,0,0,0,0,0.03,0.03,-33.1297222222222,-71.6722222222222,"WGS84"
"Valparaíso","Petorca","Papudo","2015-2016","BOSQUE LILENES","2015-11-09","13:25",164,"Sin alerta","IFor-Vn","Tránsito de personasvehículos o aeronaves",0,0,0,0,0,0,0,0,0,0.3,0.3,-32.4913888888889,-71.4294444444444,"WGS84"
"Valparaíso","Valparaíso","Valparaíso","2015-2016","VILLA RAPANUI","2015-11-09","22:30",41,"Sin alerta","IFIUr-Fo","Faenas forestales",0,0,0,0,0,0,0.02,0,0,0.01,0.03,-33.0655555555556,-71.5802777777778,"WGS84"
"Valparaíso","Valparaíso","Valparaíso","2015-2016","LA PLANCHADA","2015-11-10","16:17",50,"Sin alerta","IFor-Vn","Tránsito de personasvehículos o aeronaves",0,0,0,0,0,0,0.02,0.01,0,0,0.03,-33.0544444444444,-71.58,"WGS84"
"Valparaíso","Marga Marga","Limache","2015-2016","PARADA 6 DE LIMACHE","2015-11-13","23:00",24,"Sin alerta","IFor-PI","Tránsito de personasvehículos o aeronaves",0,0,0,0.01,0,0,0.07,0,0,0,0.08,-32.9880555555556,-71.2575,"WGS84"
"Valparaíso","Marga Marga","Villa Alemana","2015-2016","POBLACION SAN JOSE","2015-11-14","19:07",30,"Sin alerta","IFor-Vn","Actividades recreativas",0,0,0,0,0,0,0,0.01,0,0,0.01,-33.0636111111111,-71.3805555555556,"WGS84"
"Valparaíso","Marga Marga","Quilpué","2015-2016","CANCHA EL RECREO","2015-11-15","15:43",110,"Sin alerta","IFor-Vn","Quema de desechos",0,0,0,0,0,0,0,0.02,0,0.02,0.04,-33.0719444444444,-71.4005555555556,"WGS84"
"Valparaíso","Valparaíso","Valparaíso","2015-2016","TRANQUE EL PERAL","2015-11-15","17:03",66,"Sin alerta","IFor-Vn","Tránsito de personasvehículos o aeronaves",0,0,0,0,0,0,0,0.03,0,0,0.03,-33.1213888888889,-71.5344444444444,"WGS84"
"Valparaíso","Valparaíso","Valparaíso","2015-2016","VILLA RAPA-NUI","2015-11-15","17:24",71,"Sin alerta","IFor-PI","Tránsito de personasvehículos o aeronaves",0,0,0,0.7,0,0,0,0,0,0.05,0.75,-33.0652777777778,-71.5802777777778,"WGS84"
"Valparaíso","Marga Marga","Quilpué","2015-2016","FUNDO EL RETIRO","2015-11-17","15:20",45,"Sin alerta","IFor-Vn","Tránsito de personasvehículos o aeronaves",0,0,0,0,0,0,0.01,0.01,0,0,0.02,-33.0405555555556,-71.4463888888889,"WGS84"
"Valparaíso","Valparaíso","Valparaíso","2015-2016","RODELILLO - TIERRAS ROJAS","2015-11-17","17:55",75,"Sin alerta","IFor-Vn","Tránsito de personasvehículos o aeronaves",0,0,0,0,0,0,0,0.11,0,0,0.11,-33.0561111111111,-71.5802777777778,"WGS84"
"Valparaíso","Valparaíso","Valparaíso","2015-2016","LAGUNA VERDE","2015-11-18","22:35",130,"Sin alerta","IFor-Vn","Tránsito de personasvehículos o aeronaves",0,0,0,0,0,0,0,0,0,0.03,0.03,-33.1025,-71.6661111111111,"WGS84"
"Valparaíso","Marga Marga","Limache","2015-2016","18 DE SEPTIEMBRE","2015-11-18","23:30",81,"Sin alerta","IFor-Vn","Tránsito de personasvehículos o aeronaves",0,0,0,0,0,0,0,0.15,0,0,0.15,-33.0169444444444,-71.2572222222222,"WGS84"
"Valparaíso","San Felipe de Aconcagua","San Felipe","2015-2016","EL ESCORIAL","2015-11-19","14:05",1255,"Alerta roja","IFIUr-Fo","Faenas forestales",0,0,0,0,0,1.6,6,10,0,0,17.6,-32.7338888888889,-70.7744444444444,"WGS84"
"Valparaíso","Valparaíso","Viña del Mar","2015-2016","JARDIN BOTANICO","2015-11-19","17:13",46,"Sin alerta","IFor-Vn","Tránsito de personasvehículos o aeronaves",0,0,0,0,0,0,0,0.04,0,0,0.04,-33.0380555555556,-71.4944444444444,"WGS84"
"Valparaíso","Valparaíso","Valparaíso","2015-2016","R-68 / VARIANTE VIÑA","2015-11-20","15:19",30,"Sin alerta","IFor-Vn","Tránsito de personasvehículos o aeronaves",0,0,0,0,0,0,0.01,0,0,0,0.01,-33.0919444444444,-71.5513888888889,"WGS84"
"Valparaíso","Valparaíso","Puchuncavi","2015-2016","LA CHOCOTA","2015-11-20","17:10",150,"Sin alerta","IFor-PI","Tránsito de personasvehículos o aeronaves",0,0,0,0.05,0,0,0,0.1,0,0,0.15,-32.7338888888889,-71.4902777777778,"WGS84"
"Valparaíso","San Felipe de Aconcagua","Llay-Llay","2015-2016","FUNDO MONTOLIN","2015-11-21","15:15",345,"Sin alerta","IFor-Vn","Faenas agrícolas y pecuarias",0,0,0,0,0,0,7,2,0,0,9,-32.9183333333333,-70.9563888888889,"WGS84"
"Valparaíso","San Antonio","San Antonio","2015-2016","PIEDRA EL INDIO","2015-11-22","16:59",61,"Sin alerta","IFor-Vn","Tránsito de personasvehículos o aeronaves",0,0,0,0,0,0,0,0.1,0,0,0.1,-33.6194444444444,-71.5913888888889,"WGS84"
"Valparaíso","Quillota","Calera","2015-2016","CERRO LA MELONITA","2015-11-22","17:59",106,"Sin alerta","IFor-Vn","Tránsito de personasvehículos o aeronaves",0,0,0,0,0,0,0,0.03,0,0,0.03,-32.8008333333333,-71.1991666666667,"WGS84"
"Valparaíso","Marga Marga","Quilpué","2015-2016","EL RETIRO","2015-11-23","13:36",30,"Sin alerta","IFor-Vn","Actividades recreativas",0,0,0,0,0,0,0,0.03,0,0,0.03,-33.0311111111111,-71.4477777777778,"WGS84"
"Valparaíso","Valparaíso","Concón","2015-2016","AVDA. MAGALLANES","2015-11-23","13:55",65,"Sin alerta","IFor-Vn","Tránsito de personasvehículos o aeronaves",0,0,0,0,0,0,0,0.09,0,0,0.09,-32.9325,-71.5191666666667,"WGS84"
"Valparaíso","Valparaíso","Valparaíso","2015-2016","TIERRAS ROJAS","2015-11-23","18:26",74,"Sin alerta","IFor-Vn","Tránsito de personasvehículos o aeronaves",0,0,0,0,0,0,0.03,0.02,0,0,0.05,-33.0552777777778,-71.5797222222222,"WGS84"
"Valparaíso","Valparaíso","Puchuncavi","2015-2016","LA CHOCOTA","2015-11-24","10:16",198,"Sin alerta","IFor-Vn","Incendios intencionales",0,0,0,0,0,0,0,0.05,0,0.2,0.25,-32.7344444444444,-71.4897222222222,"WGS84"
"Valparaíso","Marga Marga","Olmué","2015-2016","CALLE CAI CAI","2015-11-24","14:28",49,"Sin alerta","IFor-Vn","Tránsito de personasvehículos o aeronaves",0,0,0,0,0,0,0.04,0.02,0,0,0.06,-32.9877777777778,-71.2175,"WGS84"
"Valparaíso","Quillota","Quillota","2015-2016","PARADERO 5  QUILLOTA","2015-11-24","17:00",153,"Sin alerta","IFor-Vn","Tránsito de personasvehículos o aeronaves",0,0,0,0,0,0,1.2,0.5,0,0,1.7,-32.8641666666667,-71.2433333333333,"WGS84"
"Valparaíso","San Antonio","Algarrobo","2015-2016","ESTELA MARIS","2015-11-25","12:15",42,"Sin alerta","IFor-Vn","Tránsito de personasvehículos o aeronaves",0,0,0,0,0,0,0,0.04,0,0,0.04,-33.3680555555556,-71.5733333333333,"WGS84"
"Valparaíso","Quillota","Quillota","2015-2016","PARADERO 5  QUILLOTA","2015-11-25","14:12",198,"Sin alerta","IFor-Vn","Tránsito de personasvehículos o aeronaves",0,0,0,0,0,0,0.7,0.5,0,0,1.2,-32.8594444444444,-71.2413888888889,"WGS84"
"Valparaíso","Valparaíso","Quintero","2015-2016","VALLE ALEGRE","2015-11-25","14:53",89,"Sin alerta","IFor-Vn","Accidentes eléctricos",0,0,0,0,0,0,0.05,0.09,0,0,0.14,-32.8072222222222,-71.4266666666667,"WGS84"
"Valparaíso","Valparaíso","Valparaíso","2015-2016","FUNDO CURAUMA","2015-11-25","18:04",101,"Sin alerta","IFor-Vn","Tránsito de personasvehículos o aeronaves",0,0.03,0,0,0,0,0,0,0,0.04,0.07,-33.1277777777778,-71.5836111111111,"WGS84"
"Valparaíso","Valparaíso","Valparaíso","2015-2016","CALLE GRANITO - PLAYA ANCHA","2015-11-25","20:19",43,"Sin alerta","IFor-Vn","Actividades recreativas",0,0,0,0,0,0,0.04,0,0,0,0.04,-33.0530555555556,-71.6525,"WGS84"
"Valparaíso","Valparaíso","Concón","2015-2016","PUERTA B ENAP","2015-11-26","16:19",90,"Sin alerta","IFor-Vn","Incendios intencionales",0,0,0,0,0,0,0.04,0.3,0,0,0.34,-32.9508333333333,-71.5055555555556,"WGS84"
"Valparaíso","Valparaíso","Concón","2015-2016","MONTEMAR","2015-11-27","11:40",157,"Sin alerta","IFor-Vn","Tránsito de personasvehículos o aeronaves",0,0,0,0,0,0,0.03,0.05,0,0,0.08,-32.9322222222222,-71.5194444444444,"WGS84"
"Valparaíso","San Felipe de Aconcagua","San Felipe","2015-2016","PARRACIA - SAN FELIPE","2015-11-27","13:40",90,"Sin alerta","IFor-Vn","Tránsito de personasvehículos o aeronaves",0,0,0,0,0,0,0.05,0.04,0,0,0.09,-32.7341666666667,-70.7622222222222,"WGS84"
"Valparaíso","Marga Marga","Limache","2015-2016","FUNDO BURRIQUERO","2015-11-27","14:31",242,"Sin alerta","IFor-Vn","Tránsito de personasvehículos o aeronaves",0,0,0,0.4,0,0,3,5,0,0,8.4,-32.9941666666667,-71.3291666666667,"WGS84"
"Valparaíso","Quillota","Calera","2015-2016","FINAL CALLE O´HIGGINS - CALERA","2015-11-27","14:57",93,"Sin alerta","IFor-Vn","Tránsito de personasvehículos o aeronaves",0,0,0,0,0,0,0.2,0,0,0,0.2,-32.7905555555556,-71.2269444444444,"WGS84"
"Valparaíso","Quillota","Quillota","2015-2016","PARADA 8 - QUILLOTA","2015-11-27","16:03",161,"Sin alerta","IFor-Vn","Tránsito de personasvehículos o aeronaves",0,0,0,0,0,0,0.8,0.46,0,0,1.26,-32.86,-71.2422222222222,"WGS84"
"Valparaíso","Valparaíso","Puchuncavi","2015-2016","LA CHOCOTA","2015-11-27","17:34",104,"Sin alerta","IFIUr-Fo","Tránsito de personasvehículos o aeronaves",0,0,0,0.3,0,0,0,0,0,0,0.3,-32.7347222222222,-71.4894444444444,"WGS84"
"Valparaíso","Marga Marga","Limache","2015-2016","FUNDO SANTELICES","2015-11-28","12:10",94,"Sin alerta","IFor-Vn","Tránsito de personasvehículos o aeronaves",0,0,0,0,0,0,0,0.65,0,0,0.65,-33.0238888888889,-71.2747222222222,"WGS84"
"Valparaíso","Marga Marga","Villa Alemana","2015-2016","EL PANGAL","2015-11-28","13:50",45,"Sin alerta","IFor-Vn","Tránsito de personasvehículos o aeronaves",0,0,0,0,0,0,0,0.16,0,0,0.16,-33.0430555555556,-71.3161111111111,"WGS84"
"Valparaíso","Petorca","Papudo","2015-2016","PULLALLY","2015-11-28","16:25",75,"Sin alerta","IFor-Vn","Tránsito de personasvehículos o aeronaves",0,0,0,0,0,0,0.01,0.02,0,0,0.03,-32.435,-71.3125,"WGS84"
"Valparaíso","Valparaíso","Valparaíso","2015-2016","TRANQUE EL PERAL","2015-11-29","10:57",66,"Sin alerta","IFor-PI","Tránsito de personasvehículos o aeronaves",0,0,0,0.02,0,0,0,0,0,0,0.02,-33.1222222222222,-71.5477777777778,"WGS84"
"Valparaíso","San Antonio","El Tabo","2015-2016","LAS SALINAS","2015-11-29","12:20",84,"Sin alerta","IFIUr-Fo","Tránsito de personasvehículos o aeronaves",0,0.04,0,0,0,0,0.06,0,0,0,0.1,-33.4880555555556,-71.6308333333333,"WGS84"
"Valparaíso","San Felipe de Aconcagua","Llay-Llay","2015-2016","FUNDO LA ESTRELLA","2015-11-29","13:10",175,"Sin alerta","IFor-Vn","Tránsito de personasvehículos o aeronaves",0,0,0,0,0,0,1.3,1.2,0,0,2.5,-32.8797222222222,-70.7877777777778,"WGS84"
"Valparaíso","San Felipe de Aconcagua","Llay-Llay","2015-2016","FUNDO LA ESTRELLA 2","2015-11-29","16:35",1362,"Sin alerta","IFor-Vn","Tránsito de personasvehículos o aeronaves",0,0,0,0,0,0,0.6,0.9,0,0,1.5,-32.8780555555556,-70.7877777777778,"WGS84"
"Valparaíso","Los Andes","Calle Larga","2015-2016","SECTOR PATAGUAL","2015-11-29","17:32",1303,"Sin alerta","IFIUr-Fo","Tránsito de personasvehículos o aeronaves",0,0,0,0,0,0,0,7,0,0,7,-32.8661111111111,-70.6083333333333,"WGS84"
"Valparaíso","Valparaíso","Puchuncavi","2015-2016","LA CHOCOTA","2015-12-02","15:13",142,"Sin alerta","IFor-PI","Tránsito de personasvehículos o aeronaves",0,0,0,0.05,0,0,0,0,0,0,0.05,-32.7358333333333,-71.4897222222222,"WGS84"
"Valparaíso","Marga Marga","Limache","2015-2016","CALLE ANGAMOS  LLIU LLIU","2015-12-02","16:34",54,"Sin alerta","IFor-Vn","Tránsito de personasvehículos o aeronaves",0,0,0,0,0,0,0.02,0.03,0,0,0.05,-33.0641666666667,-71.2177777777778,"WGS84"
"Valparaíso","Valparaíso","Puchuncavi","2015-2016","LA CHOCOTA","2015-12-03","16:15",166,"Sin alerta","IFIUr-Fo","Incendios intencionales",0,0,0,0.02,0,0,0.07,0.12,0,0,0.21,-32.735,-71.4902777777778,"WGS84"
"Valparaíso","Valparaíso","Valparaíso","2015-2016","RODELILLO VILLA RAPANUI","2015-12-03","18:44",1216,"Alerta roja","IFIUr-Fo","Actividades recreativas",0,0,0,0.71,0,0,0.07,0,0,0,0.78,-33.0647222222222,-71.5797222222222,"WGS84"
"Valparaíso","Marga Marga","Limache","2015-2016","HEROES DE CHILE","2015-12-04","23:30",50,"Sin alerta","IFor-Vn","Tránsito de personasvehículos o aeronaves",0,0,0,0,0,0,0.01,0.05,0,0,0.06,-33.0169444444444,-71.2572222222222,"WGS84"
"Valparaíso","Quillota","Quillota","2015-2016","AGUSTIN AVEZON","2015-12-05","12:35",150,"Sin alerta","IFor-Vn","Tránsito de personasvehículos o aeronaves",0,0,0,0,0,0,0,0.67,0,0,0.67,-32.8825,-71.2683333333333,"WGS84"
"Valparaíso","Marga Marga","Villa Alemana","2015-2016","LOS MAITENES","2015-12-05","15:19",153,"Sin alerta","IFIUr-Fo","Tránsito de personasvehículos o aeronaves",0,0,0,0,0,0,0.25,0.55,0,0,0.8,-33.0669444444444,-71.3480555555556,"WGS84"
"Valparaíso","Marga Marga","Olmué","2015-2016","QUEBRADA ALVARADO","2015-12-05","15:47",63,"Sin alerta","IFIUr-Fo","Tránsito de personasvehículos o aeronaves",0,0,0,0,0,0,0.02,0,0,0,0.02,-33.0458333333333,-71.0958333333333,"WGS84"
"Valparaíso","San Antonio","San Antonio","2015-2016","EL ASILO  CUNCUMEN","2015-12-05","16:35",109,"Sin alerta","IFor-Vn","Tránsito de personasvehículos o aeronaves",0,0,0,0,0,0,0.08,0.12,0,0,0.2,-33.7527777777778,-71.3791666666667,"WGS84"
"Valparaíso","Quillota","La Cruz","2015-2016","LA PALMILLA","2015-12-05","16:50",110,"Sin alerta","IFor-Vn","Tránsito de personasvehículos o aeronaves",0,0,0,0,0,0,0.05,0.05,0,0,0.1,-32.8063888888889,-71.2091666666667,"WGS84"
"Valparaíso","Quillota","Calera","2015-2016","CERRO CENTENARIO","2015-12-05","18:47",62,"Sin alerta","IFIUr-Fo","Tránsito de personasvehículos o aeronaves",0,0,0,0,0,0,0.2,0.5,0,0,0.7,-32.8022222222222,-71.2022222222222,"WGS84"
"Valparaíso","San Antonio","San Antonio","2015-2016","FUNDO HUINCA","2015-12-06","12:36",54,"Sin alerta","IFor-Vn","Tránsito de personasvehículos o aeronaves",0,0,0,0,0,0,0,0.3,0,0,0.3,-33.6827777777778,-71.5497222222222,"WGS84"
"Valparaíso","Marga Marga","Quilpué","2015-2016","LOMAS DEL SOL","2015-12-06","17:48",103,"Sin alerta","IFor-Vn","Actividades recreativas",0,0,0,0,0,0,0.14,0.2,0,0,0.34,-33.0352777777778,-71.4258333333333,"WGS84"
"Valparaíso","Valparaíso","Viña del Mar","2015-2016","PATRULLERO LAUTARO  GLORIAS NAVALES","2015-12-07","10:35",90,"Sin alerta","IFIUr-Fo","Tránsito de personasvehículos o aeronaves",0,0,0,0,0,0,0,0.11,0,0,0.11,-32.9977777777778,-71.5038888888889,"WGS84"
"Valparaíso","Marga Marga","Villa Alemana","2015-2016","MONTE CARMELO","2015-12-07","14:35",118,"Sin alerta","IFIUr-Fo","Tránsito de personasvehículos o aeronaves",0,0,0,0,0,0,0.07,0.43,0,0,0.5,-33.0347222222222,-71.3613888888889,"WGS84"
"Valparaíso","Marga Marga","Villa Alemana","2015-2016","FUNDO EL TRIANGULO","2015-12-07","15:40",40,"Sin alerta","IFor-Vn","Tránsito de personasvehículos o aeronaves",0,0,0,0,0,0,0,0.04,0,0,0.04,-33.0736111111111,-71.3663888888889,"WGS84"
"Valparaíso","Marga Marga","Quilpué","2015-2016","EL PEQUEN","2015-12-07","16:23",119,"Sin alerta","IFor-PI","Quema de desechos",0,0,0,0.02,0,0,0.08,0.1,0,0,0.2,-33.1183333333333,-71.3880555555556,"WGS84"
"Valparaíso","Marga Marga","Olmué","2015-2016","EL TUCAN  PARCELA  95","2015-12-08","12:00",267,"Sin alerta","IFor-Vn","Tránsito de personasvehículos o aeronaves",0,0,0,0,0,0,0.04,0.2,0,0,0.24,-33.0263888888889,-71.0525,"WGS84"
"Valparaíso","San Antonio","Santo Domingo","2015-2016","SANTA BLANCA","2015-12-08","12:57",59,"Sin alerta","IFor-Vn","Accidentes eléctricos",0,0,0,0,0,0,0,1.1,0,0,1.1,-33.7866666666667,-71.5875,"WGS84"
"Valparaíso","San Antonio","Cartagena","2015-2016","CALLEJÓN LOS MARTINEZ","2015-12-08","14:17",33,"Sin alerta","IFIUr-Fo","Tránsito de personasvehículos o aeronaves",0,0,0,0,0,0,0,0.03,0,0,0.03,-33.5338888888889,-71.5883333333333,"WGS84"
"Valparaíso","Valparaíso","Valparaíso","2015-2016","LAS HUALAS - R.N.L.P","2015-12-08","16:41",72,"Sin alerta","IFASP","Tránsito de personasvehículos o aeronaves",0,0,0,0,0,0.02,0,0,0,0.01,0.03,-33.1611111111111,-71.5391666666667,"WGS84"
"Valparaíso","Marga Marga","Quilpué","2015-2016","VALENCIA","2015-12-08","16:45",59,"Sin alerta","IFor-Vn","Operaciones en vías férreas",0,0,0,0,0,0,0.1,0.1,0,0,0.2,-33.0433333333333,-71.4572222222222,"WGS84"
"Valparaíso","Valparaíso","Viña del Mar","2015-2016","VILLA DULCE AMPLIACION","2015-12-08","17:31",149,"Sin alerta","IFor-Vn","Tránsito de personasvehículos o aeronaves",0,0,0,0,0,0,0.02,0.3,0,0,0.32,-33.0241666666667,-71.5008333333333,"WGS84"
"Valparaíso","Valparaíso","Viña del Mar","2015-2016","CALLE SAN MARTIN - VILLA DULCE","2015-12-08","17:50",135,"Sin alerta","IFor-Vn","Tránsito de personasvehículos o aeronaves",0,0,0,0,0,0,0.15,0.25,0,0,0.4,-33.0269444444444,-71.5005555555556,"WGS84"
"Valparaíso","Marga Marga","Limache","2015-2016","FUNDO EL BURRIQUERO","2015-12-09","14:45",130,"Sin alerta","IFor-Vn","Faenas forestales",0,0,0,0,0,0,1,0.46,0,0,1.46,-32.9947222222222,-71.33,"WGS84"
"Valparaíso","Valparaíso","Quintero","2015-2016","PARQUE ECOLÓGICO SANTA ADELA","2015-12-09","16:10",173,"Sin alerta","IFor-Vn","Actividades recreativas",0,0,0,0,0,0,0.2,0.1,0,0,0.3,-32.88,-71.5066666666667,"WGS84"
"Valparaíso","Marga Marga","Quilpué","2015-2016","FRUTILLAR","2015-12-09","16:35",128,"Sin alerta","IFor-Vn","Tránsito de personasvehículos o aeronaves",0,0,0,0,0,0,0.48,0.3,0,0,0.78,-33.0213888888889,-71.4166666666667,"WGS84"
"Valparaíso","Marga Marga","Villa Alemana","2015-2016","POBLACION TRISANO","2015-12-10","00:15",45,"Sin alerta","IFor-Vn","Tránsito de personasvehículos o aeronaves",0,0,0,0,0,0,0,0.01,0,0,0.01,-33.0463888888889,-71.3975,"WGS84"
"Valparaíso","Marga Marga","Limache","2015-2016","SECTOR LIRAS DE RAYEN","2015-12-10","11:40",74,"Sin alerta","IFor-Vn","Accidentes eléctricos",0,0,0,0,0,0,0,0.05,0,0,0.05,-33.0169444444444,-71.3580555555556,"WGS84"
"Valparaíso","Marga Marga","Quilpué","2015-2016","LOS PINOS","2015-12-10","14:14",132,"Sin alerta","IFIUr-Fo","Quema de desechos",0,0,0,0.2,0,0,0.2,0.6,0,0,1,-33.0672222222222,-71.4127777777778,"WGS84"
"Valparaíso","Quillota","Calera","2015-2016","BOSQUES DE PACHACAMA","2015-12-10","14:53",320,"Sin alerta","IFor-Vn","Tránsito de personasvehículos o aeronaves",0,0,0,0.6,0,0,1.6,3,0,0,5.2,-32.8255555555556,-71.1575,"WGS84"
"Valparaíso","Marga Marga","Villa Alemana","2015-2016","LAS VEGAS","2015-12-10","16:18",140,"Sin alerta","IFIUr-Fo","Tránsito de personasvehículos o aeronaves",0,0,0,0,0,0,0.4,0.7,0,0,1.1,-33.0322222222222,-71.3888888888889,"WGS84"
"Valparaíso","Valparaíso","Valparaíso","2015-2016","PUERTA DEL SOL - PLACILLA","2015-12-10","17:35",29,"Sin alerta","IFIUr-Fo","Actividades recreativas",0,0,0,0,0,0,0.01,0.01,0,0,0.02,-33.1227777777778,-71.5877777777778,"WGS84"
"Valparaíso","Marga Marga","Limache","2015-2016","POZA LARGA","2015-12-10","17:57",68,"Sin alerta","IFIUr-Fo","Tránsito de personasvehículos o aeronaves",0,0,0,0,0,0,0.02,0.08,0,0,0.1,-33.0052777777778,-71.2747222222222,"WGS84"
"Valparaíso","Valparaíso","Valparaíso","2015-2016","POBL. FARO  PUNTA DUPRAT","2015-12-10","20:10",125,"Sin alerta","IFIUr-Fo","Incendios intencionales",0,0,0,0,0,0,0.02,0.08,0,0,0.1,-33.065,-71.5755555555556,"WGS84"
"Valparaíso","Valparaíso","Casablanca","2015-2016","HARAS FIGURON","2015-12-11","01:40",70,"Sin alerta","IFor-Vn","Tránsito de personasvehículos o aeronaves",0,0,0,0,0,0,0,0.03,0,0,0.03,-33.3272222222222,-71.3658333333333,"WGS84"
"Valparaíso","Quillota","Quillota","2015-2016","POBLACION ANTUMAPU","2015-12-11","17:50",103,"Sin alerta","IFor-Vn","Tránsito de personasvehículos o aeronaves",0,0,0,0,0,0,0.1,0.13,0,0,0.23,-32.8872222222222,-71.2691666666667,"WGS84"
"Valparaíso","Quillota","Quillota","2015-2016","ANTUMAPU","2015-12-12","16:05",125,"Sin alerta","IFor-Vn","Tránsito de personasvehículos o aeronaves",0,0,0,0,0,0,0.13,0.15,0,0,0.28,-32.8877777777778,-71.27,"WGS84"
"Valparaíso","Valparaíso","Valparaíso","2015-2016","TRANQUE EL PERAL","2015-12-13","10:15",66,"Sin alerta","IFor-Vn","Tránsito de personasvehículos o aeronaves",0,0,0,0.01,0,0,0,0.02,0,0,0.03,-33.1216666666667,-71.5494444444444,"WGS84"
"Valparaíso","San Antonio","Santo Domingo","2015-2016","MIRADOR ALTO EL YALI","2015-12-13","16:35",147,"Sin alerta","IFor-Vn","Tránsito de personasvehículos o aeronaves",0,0,0,0,0,0.7,1,1.5,0,0,3.2,-33.8111111111111,-71.6152777777778,"WGS84"
"Valparaíso","Quillota","Quillota","2015-2016","RAUTEN SECTOR MANZANAR","2015-12-13","20:08",91,"Sin alerta","IFor-Vn","Tránsito de personasvehículos o aeronaves",0,0,0,0,0,0,0.1,0.5,0,0,0.6,-32.9155555555556,-71.3166666666667,"WGS84"
"Valparaíso","Quillota","Nogales","2015-2016","SAN CARLOS","2015-12-14","11:11",159,"Sin alerta","IFor-Vn","Tránsito de personasvehículos o aeronaves",0,0,0,0,0,0,0.02,0.06,0,0,0.08,-32.7575,-71.1955555555556,"WGS84"
"Valparaíso","Valparaíso","Viña del Mar","2015-2016","LOS PINOS  REÑACA","2015-12-14","12:56",74,"Sin alerta","IFIUr-Fo","Tránsito de personasvehículos o aeronaves",0,0,0,0,0,0,0.02,0.04,0,0,0.06,-32.9483333333333,-71.5322222222222,"WGS84"
"Valparaíso","Valparaíso","Valparaíso","2015-2016","CAMINO VIEJO LAS DOCAS","2015-12-14","13:44",47,"Sin alerta","IFIUr-Fo","Tránsito de personasvehículos o aeronaves",0,0,0,0,0,0,0.01,0.03,0,0,0.04,-33.1366666666667,-71.6755555555556,"WGS84"
"Valparaíso","Marga Marga","Villa Alemana","2015-2016","LAS VEGAS","2015-12-14","14:35",203,"Alerta amarilla","IFIUr-Fo","Tránsito de personasvehículos o aeronaves",0,0,0,0,0,0.1,0.3,0.4,0,0,0.8,-33.035,-71.3911111111111,"WGS84"
"Valparaíso","Marga Marga","Villa Alemana","2015-2016","LAS CABRAS","2015-12-14","14:57",271,"Sin alerta","IFor-Vn","Tránsito de personasvehículos o aeronaves",0,0,0,0,0,0,3.22,6.2,0,0,9.42,-33.03,-71.3886111111111,"WGS84"
"Valparaíso","Marga Marga","Olmué","2015-2016","P.N.L.C - PUENTE LA CAMPANA","2015-12-14","16:12",198,"Alerta roja","IFASP","Tránsito de personasvehículos o aeronaves",0,0,0,0,0,0,0.06,0,0,0,0.06,-32.9644444444444,-71.1358333333333,"WGS84"
"Valparaíso","Valparaíso","Valparaíso","2015-2016","4TO SECTOR P.ANCHA","2015-12-14","16:55",25,"Sin alerta","IFIUr-Fo","Tránsito de personasvehículos o aeronaves",0,0,0,0,0,0,0.01,0.03,0,0,0.04,-33.0547222222222,-71.6477777777778,"WGS84"
"Valparaíso","Valparaíso","Viña del Mar","2015-2016","FUNDO SIETE HERMANAS","2015-12-15","09:01",130,"Sin alerta","IFor-Vn","Incendios intencionales",0,0,0,0.6,0,0.3,0,0,0,0,0.9,-33.0619444444444,-71.5027777777778,"WGS84"
"Valparaíso","Marga Marga","Limache","2015-2016","JUAN OLMOS","2015-12-15","12:30",80,"Sin alerta","IFor-Vn","Tránsito de personasvehículos o aeronaves",0,0,0,0,0,0,0.03,0.05,0,0,0.08,-32.9986111111111,-71.2588888888889,"WGS84"
"Valparaíso","Valparaíso","Valparaíso","2015-2016","FUNDO EL CHAPARRAL","2015-12-15","17:13",1,"Sin alerta","IFor-Vn","Faenas forestales",0,0,0,0,0,0,0,0,0,0.05,0.05,-33.1394444444444,-71.6813888888889,"WGS84"
"Valparaíso","San Antonio","Cartagena","2015-2016","PUERTO NUEVO","2015-12-15","17:20",44,"Sin alerta","IFIUr-Fo","Tránsito de personasvehículos o aeronaves",0,0,0,0,0,0,0,0.4,0,0,0.4,-33.5575,-71.6127777777778,"WGS84"
"Valparaíso","Marga Marga","Limache","2015-2016","FUNDO EL CONDOR","2015-12-15","18:20",92,"Sin alerta","IFor-Vn","Tránsito de personasvehículos o aeronaves",0,0,0,0,0,0,0.12,0.7,0,0,0.82,-33.0341666666667,-71.25,"WGS84"
"Valparaíso","Valparaíso","Viña del Mar","2015-2016","LAS PATAGUAS","2015-12-16","13:45",152,"Sin alerta","IFIUr-Fo","Tránsito de personasvehículos o aeronaves",0,0,0,0,0,0,0,0.8,0,0.02,0.82,-33.035,-71.5219444444444,"WGS84"
"Valparaíso","San Antonio","San Antonio","2015-2016","CERRO LA VIRGEN","2015-12-16","14:18",162,"Sin alerta","IFor-PI","Tránsito de personasvehículos o aeronaves",0,0.4,0,0,0,0,0,2.7,0,0,3.1,-33.5686111111111,-71.6194444444444,"WGS84"
"Valparaíso","Quillota","Quillota","2015-2016","PLANTA EL OBSERVADOR","2015-12-16","15:45",68,"Sin alerta","IFor-Vn","Tránsito de personasvehículos o aeronaves",0,0,0,0,0,0,0,0.2,0,0,0.2,-32.8794444444444,-71.2344444444444,"WGS84"
"Valparaíso","Petorca","Papudo","2015-2016","PARQUE PULLALLI","2015-12-16","16:05",185,"Sin alerta","IFor-PI","Tránsito de personasvehículos o aeronaves",0,0,0,0.02,0,0,0.15,0.13,0,0,0.3,-32.4330555555556,-71.3158333333333,"WGS84"
"Valparaíso","Marga Marga","Limache","2015-2016","CALLE OLMOS","2015-12-16","16:10",111,"Sin alerta","IFor-Vn","Tránsito de personasvehículos o aeronaves",0,0,0,0,0,0,0.03,0.04,0,0,0.07,-32.9988888888889,-71.2594444444444,"WGS84"
"Valparaíso","San Antonio","El Quisco","2015-2016","CRUCE EL TOTORAL","2015-12-16","17:05",118,"Sin alerta","IFor-Vn","Tránsito de personasvehículos o aeronaves",0,0.1,0,0,0,0,0,0.2,0,0,0.3,-33.4152777777778,-71.59,"WGS84"
"Valparaíso","Valparaíso","Viña del Mar","2015-2016","JARDIN BOTANICO","2015-12-17","13:02",123,"Sin alerta","IFor-Vn","Tránsito de personasvehículos o aeronaves",0,0,0,0.02,0,0,0,0.2,0,0,0.22,-33.0375,-71.5005555555556,"WGS84"
"Valparaíso","Marga Marga","Villa Alemana","2015-2016","FINAL CALLE UNION","2015-12-17","14:20",103,"Sin alerta","IFIUr-Fo","Tránsito de personasvehículos o aeronaves",0,0,0,0,0,0,0.37,0.5,0,0,0.87,-33.0308333333333,-71.3991666666667,"WGS84"
"Valparaíso","Petorca","La Ligua","2015-2016","PETROBRAS LA LIGUA","2015-12-17","17:13",36,"Sin alerta","IFor-Vn","Tránsito de personasvehículos o aeronaves",0,0,0,0,0,0,0,0.04,0,0,0.04,-32.4513888888889,-71.2394444444444,"WGS84"
"Valparaíso","Marga Marga","Quilpué","2015-2016","LA CANTERA","2015-12-17","17:30",90,"Sin alerta","IFIUr-Fo","Tránsito de personasvehículos o aeronaves",0,0,0,0,0,0,0,0.4,0,0,0.4,-33.0280555555556,-71.4086111111111,"WGS84"
"Valparaíso","Valparaíso","Valparaíso","2015-2016","LA PLANCHADA","2015-12-17","19:02",71,"Sin alerta","IFor-Vn","Incendios intencionales",0,0,0,0,0,0,0.01,0.03,0,0,0.04,-33.0572222222222,-71.5802777777778,"WGS84"
"Valparaíso","Petorca","La Ligua","2015-2016","EL GUINDO - LONGOTOMA","2015-12-17","19:43",82,"Sin alerta","IFor-Vn","Tránsito de personasvehículos o aeronaves",0,0,0,0,0,0,0,0.05,0,0,0.05,-32.3886111111111,-71.3652777777778,"WGS84"
"Valparaíso","San Antonio","San Antonio","2015-2016","QUEBRADA QUELEN","2015-12-18","10:37",633,"Alerta roja","IFor-Vn","Faenas forestales",0,0,0,0,0,27,20,40,0,0,87,-33.7236111111111,-71.4116666666667,"WGS84"
"Valparaíso","Marga Marga","Limache","2015-2016","LOS LAURELES","2015-12-18","13:30",103,"Sin alerta","IFor-Vn","Tránsito de personasvehículos o aeronaves",0,0,0,0,0,0,0,0.13,0,0,0.13,-32.9811111111111,-71.2908333333333,"WGS84"
"Valparaíso","Petorca","Cabildo","2015-2016","LAS PUERTAS","2015-12-18","14:00",110,"Sin alerta","IFor-Vn","Tránsito de personasvehículos o aeronaves",0,0,0,0,0,0,0,1.15,0,0,1.15,-32.4769444444444,-70.9405555555556,"WGS84"
"Valparaíso","Marga Marga","Villa Alemana","2015-2016","LO HIDALGO","2015-12-18","14:37",132,"Sin alerta","IFor-Vn","Tránsito de personasvehículos o aeronaves",0,0,0,0,0,0,0.3,1.8,0,0,2.1,-33.0372222222222,-71.3077777777778,"WGS84"
"Valparaíso","Valparaíso","Valparaíso","2015-2016","PLAYA ANCHA 5TO SECTOR","2015-12-18","15:07",144,"Sin alerta","IFIUr-Fo","Tránsito de personasvehículos o aeronaves",0,0,0,0,0,0,0,0.3,0,0,0.3,-33.0516666666667,-71.655,"WGS84"
"Valparaíso","Petorca","La Ligua","2015-2016","QUINQUIMO","2015-12-18","17:18",141,"Alerta roja","IFIUr-Fo","Tránsito de personasvehículos o aeronaves",0,0,0,0.4,0,0,0.3,0.8,0,0,1.5,-32.4472222222222,-71.3125,"WGS84"
"Valparaíso","Quillota","La Cruz","2015-2016","CALLEJON GONZALEZ","2015-12-18","18:25",1144,"Sin alerta","IFor-Vn","Tránsito de personasvehículos o aeronaves",0,0,0,0,0,0,0.3,0.7,0,0,1,-32.8444444444444,-71.2375,"WGS84"
"Valparaíso","San Antonio","Algarrobo","2015-2016","CAMPO MAR","2015-12-18","19:53",111,"Sin alerta","IFor-Vn","Tránsito de personasvehículos o aeronaves",0,0,0,0,0,0,0.01,0,0,0,0.01,-33.2927777777778,-71.6413888888889,"WGS84"
"Valparaíso","Marga Marga","Quilpué","2015-2016","FUNDO SAN JORGE","2015-12-19","11:47",158,"Sin alerta","IFor-Vn","Tránsito de personasvehículos o aeronaves",0,0,0,0,0,0,0.3,0.5,0,0,0.8,-33.0233333333333,-71.4152777777778,"WGS84"
"Valparaíso","Valparaíso","Valparaíso","2015-2016","CURAUMILLA","2015-12-19","16:44",187,"Sin alerta","IFor-Vn","Tránsito de personasvehículos o aeronaves",0,0,0,0,0,0,0,0,0,0.11,0.11,-33.1213888888889,-71.7138888888889,"WGS84"
"Valparaíso","Valparaíso","Viña del Mar","2015-2016","BORINQUEN","2015-12-19","18:09",128,"Sin alerta","IFIUr-Fo","Tránsito de personasvehículos o aeronaves",0,0,0,0,0,0.03,0.01,0.01,0,0,0.05,-33.0463888888889,-71.5697222222222,"WGS84"
"Valparaíso","San Antonio","San Antonio","2015-2016","PARCELA 108 - SAN JUAN","2015-12-20","12:03",106,"Sin alerta","IFor-PI","Otras actividades",0,0,0,0.05,0,0,0,0.25,0,0,0.3,-33.6425,-71.5486111111111,"WGS84"
"Valparaíso","Valparaíso","Valparaíso","2015-2016","PUERTA 1 LAS CENIZAS","2015-12-20","13:00",102,"Sin alerta","IFor-PI","Tránsito de personasvehículos o aeronaves",0,0,0,0.02,0,0,0.03,0,0,0,0.05,-33.1102777777778,-71.5552777777778,"WGS84"
"Valparaíso","San Antonio","Cartagena","2015-2016","CANCHA PUERTO NUEVO","2015-12-20","13:35",64,"Sin alerta","IFor-Vn","Actividades recreativas",0,0,0,0,0,0,0,0.4,0,0,0.4,-33.5597222222222,-71.6077777777778,"WGS84"
"Valparaíso","Valparaíso","Viña del Mar","2015-2016","FUNDO SIETE HERMANAS","2015-12-20","14:25",69,"Sin alerta","IFor-Vn","Tránsito de personasvehículos o aeronaves",0,0,0,0,0,0.01,0.01,0.03,0,0,0.05,-33.0727777777778,-71.4975,"WGS84"
"Valparaíso","Valparaíso","Valparaíso","2015-2016","TIERRAS ROJAS","2015-12-20","14:30",51,"Sin alerta","IFor-Vn","Tránsito de personasvehículos o aeronaves",0,0,0,0,0,0,0.1,0,0,0,0.1,-33.0558333333333,-71.5802777777778,"WGS84"
"Valparaíso","Valparaíso","Concón","2015-2016","FUERTE AGUAYO","2015-12-20","15:30",210,"Sin alerta","IFor-Vn","Tránsito de personasvehículos o aeronaves",0,0,0,0.3,0,0,1.2,0.5,0,0,2,-32.9583333333333,-71.4616666666667,"WGS84"
"Valparaíso","Marga Marga","Quilpué","2015-2016","HACIENDA LAS PALMAS","2015-12-20","16:17",1185,"Sin alerta","IFor-Vn","Tránsito de personasvehículos o aeronaves",0,0,0,0,0,0.9,0.12,0.2,0,0,1.22,-33.1244444444444,-71.3919444444444,"WGS84"
"Valparaíso","Valparaíso","Viña del Mar","2015-2016","REÑACA ALTO","2015-12-20","16:50",40,"Sin alerta","IFIUr-Fo","Tránsito de personasvehículos o aeronaves",0,0,0,0,0,0,0.12,0.18,0,0,0.3,-32.9938888888889,-71.4997222222222,"WGS84"
"Valparaíso","Valparaíso","Viña del Mar","2015-2016","FUNDO SIETE HERMANAS 2","2015-12-20","17:28",77,"Sin alerta","IFor-Vn","Tránsito de personasvehículos o aeronaves",0,0,0,0,0,0,0,0.01,0,0,0.01,-33.0738888888889,-71.4966666666667,"WGS84"
"Valparaíso","San Antonio","San Antonio","2015-2016","PIEDRA DEL INDIO","2015-12-20","17:29",133,"Sin alerta","IFor-Vn","Tránsito de personasvehículos o aeronaves",0,0,0,0,0,0,0,0.4,0,0,0.4,-33.6155555555556,-71.5933333333333,"WGS84"
"Valparaíso","Valparaíso","Valparaíso","2015-2016","LA PLANCHADA RODELILLO","2015-12-20","20:17",31,"Sin alerta","IFor-Vn","Tránsito de personasvehículos o aeronaves",0,0,0,0,0,0,0.1,0.05,0,0,0.15,-33.0561111111111,-71.5822222222222,"WGS84"
"Valparaíso","Marga Marga","Quilpué","2015-2016","VILLA PACIFICO","2015-12-20","20:58",72,"Sin alerta","IFor-PI","Tránsito de personasvehículos o aeronaves",0,0,0,0.1,0,0,0,0.2,0,0,0.3,-33.0669444444444,-71.4130555555556,"WGS84"
"Valparaíso","Quillota","Quillota","2015-2016","LA CAPILLA EL BOCO","2015-12-21","11:33",132,"Sin alerta","IFor-Vn","Tránsito de personasvehículos o aeronaves",0,0,0,0,0,0,0.07,0.02,0,0,0.09,-32.8727777777778,-71.2583333333333,"WGS84"
"Valparaíso","Petorca","Cabildo","2015-2016","EL QUEMADO","2015-12-21","13:55",155,"Sin alerta","IFor-Vn","Tránsito de personasvehículos o aeronaves",0,0,0,0,0,0,0,1.96,0,0,1.96,-32.4375,-71.0194444444444,"WGS84"
"Valparaíso","Marga Marga","Villa Alemana","2015-2016","EL ROCIO","2015-12-21","16:30",105,"Sin alerta","IFor-Vn","Tránsito de personasvehículos o aeronaves",0,0,0,0,0,0,0.2,0.7,0,0.5,1.4,-33.0672222222222,-71.3969444444444,"WGS84"
"Valparaíso","Petorca","La Ligua","2015-2016","EL RAYADO","2015-12-21","17:45",45,"Sin alerta","IFor-Vn","Tránsito de personasvehículos o aeronaves",0,0,0,0,0,0,0.03,0.08,0,0,0.11,-32.4516666666667,-71.2444444444444,"WGS84"
"Valparaíso","Valparaíso","Puchuncavi","2015-2016","LA CHOCOTA","2015-12-21","17:55",61,"Sin alerta","IFIUr-Fo","Tránsito de personasvehículos o aeronaves",0,0,0,0,0,0,0.04,0.06,0,0,0.1,-32.7336111111111,-71.49,"WGS84"
"Valparaíso","Marga Marga","Villa Alemana","2015-2016","FINAL COVADONGA","2015-12-22","16:12",52,"Sin alerta","IFor-Vn","Actividades recreativas",0,0,0,0,0,0,0,0.08,0,0,0.08,-33.0361111111111,-71.3527777777778,"WGS84"
"Valparaíso","Marga Marga","Villa Alemana","2015-2016","SECTOR LA CANTERA","2015-12-22","16:20",94,"Sin alerta","IFor-PI","Tránsito de personasvehículos o aeronaves",0,0,0,0.01,0,0,0.04,0.07,0,0,0.12,-33.0330555555556,-71.3705555555556,"WGS84"
"Valparaíso","San Antonio","El Quisco","2015-2016","PEUMALLEN","2015-12-22","17:55",156,"Sin alerta","IFIUr-Fo","Tránsito de personasvehículos o aeronaves",0,0,0,0.5,0,0,0,0.5,0,0,1,-33.4094444444444,-71.6722222222222,"WGS84"
"Valparaíso","San Antonio","San Antonio","2015-2016","CANCHA BALMACEDA","2015-12-22","18:20",45,"Sin alerta","IFor-Vn","Tránsito de personasvehículos o aeronaves",0,0,0,0,0,0,0,0.1,0,0,0.1,-33.5666666666667,-71.6041666666667,"WGS84"
"Valparaíso","Marga Marga","Villa Alemana","2015-2016","CANCHA LOS MARISTAS","2015-12-22","19:13",105,"Alerta roja","IFIUr-Fo","Tránsito de personasvehículos o aeronaves",0,0,0,0,0,0,0.08,2.5,0,0,2.58,-33.0330555555556,-71.3630555555556,"WGS84"
"Valparaíso","Marga Marga","Limache","2015-2016","FINAL CALLE PRAT","2015-12-22","19:42",70,"Sin alerta","IFor-Vn","Tránsito de personasvehículos o aeronaves",0,0,0,0,0,0,0.02,0.03,0,0,0.05,-32.9905555555556,-71.2805555555556,"WGS84"
"Valparaíso","Valparaíso","Concón","2015-2016","CEMENTERIO PARROQUIAL","2015-12-22","19:55",97,"Sin alerta","IFor-Vn","Tránsito de personasvehículos o aeronaves",0.02,0,0,0,0,0,0.02,0.1,0,0,0.14,-32.9366666666667,-71.4736111111111,"WGS84"
"Valparaíso","San Antonio","Cartagena","2015-2016","EL TURCO","2015-12-23","13:57",393,"Sin alerta","IFor-Vn","Tránsito de personasvehículos o aeronaves",0,0,0,0,0,7,5,15.7,0,0,27.7,-33.5588888888889,-71.4919444444444,"WGS84"
"Valparaíso","San Antonio","San Antonio","2015-2016","VIUDA 6","2015-12-23","15:45",44,"Sin alerta","IFIUr-Fo","Tránsito de personasvehículos o aeronaves",0,0,0,0,0,0,0,0.01,0,0,0.01,-33.6097222222222,-71.5955555555555,"WGS84"
"Valparaíso","Marga Marga","Villa Alemana","2015-2016","LOS MAITENES","2015-12-23","17:00",278,"Alerta roja","IFIUr-Fo","Tránsito de personasvehículos o aeronaves",0,0,0,0,0,0,1.2,4,0,0,5.2,-33.0661111111111,-71.3505555555556,"WGS84"
"Valparaíso","Marga Marga","Villa Alemana","2015-2016","LOS ARRAYANES","2015-12-23","17:01",277,"Alerta roja","IFIUr-Fo","Tránsito de personasvehículos o aeronaves",0,0,0,0,0,0,1.8,2,0,0,3.8,-33.0644444444444,-71.3438888888889,"WGS84"
"Valparaíso","Valparaíso","Valparaíso","2015-2016","FUNDO EL MANZANO","2015-12-23","17:05",63,"Sin alerta","IFor-Vn","Tránsito de personasvehículos o aeronaves",0,0,0,0.02,0,0,0.01,0,0,0,0.03,-33.0888888888889,-71.5986111111111,"WGS84"
"Valparaíso","Quillota","Quillota","2015-2016","CERRO MAYACA","2015-12-23","19:20",99,"Sin alerta","IFIUr-Fo","Tránsito de personasvehículos o aeronaves",0,0,0,0,0,0,0.15,0.11,0,0,0.26,-32.8752777777778,-71.2494444444444,"WGS84"
"Valparaíso","Marga Marga","Olmué","2015-2016","LA RAMALLANA","2015-12-23","19:20",91,"Sin alerta","IFor-Vn","Tránsito de personasvehículos o aeronaves",0,0,0,0,0,0,0.15,0.1,0,0,0.25,-33.0577777777778,-71.0422222222222,"WGS84"
"Valparaíso","Valparaíso","Viña del Mar","2015-2016","PARTE ALTA DE JARDÍN BOTANICO","2015-12-24","07:50",53,"Sin alerta","IFor-Vn","Tránsito de personasvehículos o aeronaves",0,0,0,0,0,0,0.01,0,0,0,0.01,-33.045,-71.5033333333333,"WGS84"
"Valparaíso","San Antonio","San Antonio","2015-2016","FUNDO MIRAMAR","2015-12-24","12:50",187,"Sin alerta","IFor-Vn","Tránsito de personasvehículos o aeronaves",0,0,0,0,0,0,0,0.9,0,0,0.9,-33.5836111111111,-71.5936111111111,"WGS84"
"Valparaíso","San Antonio","San Antonio","2015-2016","FUNDO SANTO DOMINGO","2015-12-24","12:59",163,"Sin alerta","IFIUr-Fo","Tránsito de personasvehículos o aeronaves",0,0,0,0,0,0,0.5,1.2,0,0,1.7,-33.5730555555556,-71.575,"WGS84"
"Valparaíso","Quillota","Calera","2015-2016","CAMINO PALMILLA","2015-12-24","13:05",85,"Sin alerta","IFor-Vn","Tránsito de personasvehículos o aeronaves",0,0,0,0,0,0,0,0.02,0,0,0.02,-32.7986111111111,-71.1947222222222,"WGS84"
"Valparaíso","San Antonio","San Antonio","2015-2016","FUNDO MIRAMAR 2","2015-12-24","13:35",150,"Sin alerta","IFor-Vn","Tránsito de personasvehículos o aeronaves",0,0,0,0,0,0,0.5,1.5,0,0,2,-33.5758333333333,-71.58,"WGS84"
"Valparaíso","Valparaíso","Casablanca","2015-2016","LOMA LARGA","2015-12-24","13:45",155,"Sin alerta","IFor-Vn","Tránsito de personasvehículos o aeronaves",0,0,0,0,0,0,0.02,0.02,0,0,0.04,-33.2877777777778,-71.3741666666667,"WGS84"
"Valparaíso","Valparaíso","Puchuncavi","2015-2016","CAMPICHE","2015-12-24","14:00",50,"Sin alerta","IFIUr-Fo","Tránsito de personasvehículos o aeronaves",0,0,0,0.01,0,0,0,0.02,0,0,0.03,-32.7502777777778,-71.4733333333333,"WGS84"
"Valparaíso","Valparaíso","Viña del Mar","2015-2016","SUB ESTACION LAS PALMAS","2015-12-24","15:10",248,"Alerta roja","IFIUr-Fo","Tránsito de personasvehículos o aeronaves",0,0,0,0,0,0.38,3.16,1.46,0,0,5,-33.0775,-71.5461111111111,"WGS84"
"Valparaíso","Marga Marga","Villa Alemana","2015-2016","FINAL CALLE PROGRESO","2015-12-24","17:10",153,"Alerta roja","IFor-Vn","Tránsito de personasvehículos o aeronaves",0,0,0,0,0,0,0.2,0.6,0,0,0.8,-33.0327777777778,-71.3736111111111,"WGS84"
"Valparaíso","Marga Marga","Quilpué","2015-2016","NORTE PARADERO 30","2015-12-24","18:20",73,"Sin alerta","IFIUr-Fo","Tránsito de personasvehículos o aeronaves",0,0,0,0,0,0,0.09,0.09,0,0,0.18,-33.0413888888889,-71.4616666666667,"WGS84"
"Valparaíso","Quillota","Quillota","2015-2016","VILLA PARAISO","2015-12-25","01:55",46,"Sin alerta","IFIUr-Fo","Tránsito de personasvehículos o aeronaves",0,0,0,0,0,0,0,0.05,0,0,0.05,-32.8894444444444,-71.2663888888889,"WGS84"
"Valparaíso","Valparaíso","Quintero","2015-2016","RITOQUE","2015-12-25","13:00",330,"Sin alerta","IFor-Vn","Tránsito de personasvehículos o aeronaves",0,3.1,0,1,0,0,0,0,0,0,4.1,-32.8111111111111,-71.5411111111111,"WGS84"
"Valparaíso","Quillota","Quillota","2015-2016","VILLA ANTUMAPU","2015-12-25","14:20",114,"Sin alerta","IFor-Vn","Tránsito de personasvehículos o aeronaves",0,0,0,0,0,0,0.14,0.3,0,0,0.44,-32.8858333333333,-71.2688888888889,"WGS84"
"Valparaíso","Marga Marga","Villa Alemana","2015-2016","LOS MARISTAS","2015-12-25","14:47",248,"Sin alerta","IFor-Vn","Tránsito de personasvehículos o aeronaves",0,0,0,0,0,1,1.2,3,0,0,5.2,-33.0313888888889,-71.3655555555556,"WGS84"
"Valparaíso","Marga Marga","Olmué","2015-2016","EL ALMENDRAL - QUEBRADA ALVARADO","2015-12-26","14:12",3,"Sin alerta","IFIUr-Fo","Tránsito de personasvehículos o aeronaves",0,0,0,1.5,0,0,2.3,0.42,0,0,4.22,-33.065,-71.0644444444444,"WGS84"
"Valparaíso","Valparaíso","Puchuncavi","2015-2016","CAMPICHE ALTO","2015-12-26","14:25",75,"Sin alerta","IFor-Vn","Tránsito de personasvehículos o aeronaves",0,0,0,0.01,0,0,0.01,0.06,0,0,0.08,-32.7305555555556,-71.4522222222222,"WGS84"
"Valparaíso","Petorca","La Ligua","2015-2016","EL RAYADO","2015-12-26","18:50",79,"Sin alerta","IFor-Vn","Tránsito de personasvehículos o aeronaves",0,0,0,0,0,0,0.08,0.16,0,0,0.24,-32.4594444444444,-71.2483333333333,"WGS84"
"Valparaíso","San Felipe de Aconcagua","Catemu","2015-2016","EL NARANJAL","2015-12-27","10:25",312,"Sin alerta","IFor-Vn","Quema de desechos",0,0,0,0,0,0,0.5,0,0,0,0.5,-32.6852777777778,-70.9497222222222,"WGS84"
"Valparaíso","San Antonio","Cartagena","2015-2016","CANCHA PUERTO NUEVO","2015-12-27","12:21",81,"Sin alerta","IFor-PI","Tránsito de personasvehículos o aeronaves",0,0,0,0.39,0,0,0,0.1,0,0,0.49,-33.56,-71.6086111111111,"WGS84"
"Valparaíso","Petorca","Papudo","2015-2016","CABO VERDE","2015-12-27","13:15",140,"Sin alerta","IFor-Vn","Otras actividades",0,0,0,0,0,0,1.27,4,0,0,5.27,-32.4702777777778,-71.3683333333333,"WGS84"
"Valparaíso","San Antonio","San Antonio","2015-2016","POZONES DE CUNCUMEN","2015-12-27","15:28",293,"Sin alerta","IFor-Vn","Tránsito de personasvehículos o aeronaves",0,0,0,0,0,0,8.5,25,0,0,33.5,-33.7455555555556,-71.4391666666667,"WGS84"
"Valparaíso","Marga Marga","Villa Alemana","2015-2016","CERRO LA VIRGEN","2015-12-27","16:20",138,"Sin alerta","IFor-Vn","Tránsito de personasvehículos o aeronaves",0,0,0,0,0,0,0.5,1.25,0,0,1.75,-33.0269444444444,-71.3672222222222,"WGS84"
"Valparaíso","San Antonio","El Quisco","2015-2016","TRALCAMAHUIDA","2015-12-27","16:46",184,"Sin alerta","IFor-PI","Actividades recreativas",0,0,0,0.1,0,0,0.2,0.5,0,0,0.8,-33.4169444444444,-71.6827777777778,"WGS84"
"Valparaíso","San Antonio","San Antonio","2015-2016","PELANCURA","2015-12-27","22:00",879,"Sin alerta","IFor-Vn","Tránsito de personasvehículos o aeronaves",0,0,0,0,0,0,0,0.2,0,0,0.2,-33.5683333333333,-71.6208333333333,"WGS84"
"Valparaíso","Valparaíso","Valparaíso","2015-2016","QUEBRADA LA TORTUGA","2015-12-28","13:57",58,"Sin alerta","IFIUr-Fo","Actividades recreativas",0,0,0,0,0,0,0,0.01,0,0,0.01,-33.0327777777778,-71.6502777777778,"WGS84"
"Valparaíso","Marga Marga","Limache","2015-2016","FUNDO BORRIQUERO","2015-12-28","15:45",1346,"Sin alerta","IFor-Vn","Tránsito de personasvehículos o aeronaves",0,0,0,0,0,0,2.5,10,0,1.5,14,-33.0233333333333,-71.3308333333333,"WGS84"
"Valparaíso","Marga Marga","Villa Alemana","2015-2016","COPA WILSON","2015-12-28","15:48",187,"Sin alerta","IFor-Vn","Tránsito de personasvehículos o aeronaves",0,0,0,0,0,0,0.09,0.8,0,0,0.89,-33.0386111111111,-71.3361111111111,"WGS84"
"Valparaíso","Marga Marga","Villa Alemana","2015-2016","LOS ALMENDROS","2015-12-28","18:40",93,"Sin alerta","IFor-Vn","Tránsito de personasvehículos o aeronaves",0,0,0,0,0,0,0.09,0.1,0,0,0.19,-33.0727777777778,-71.3572222222222,"WGS84"
"Valparaíso","Quillota","La Cruz","2015-2016","FUNDO EL NARANJAL","2015-12-30","00:38",112,"Sin alerta","IFor-PI","Tránsito de personasvehículos o aeronaves",0,0,0,0.1,0,0,0.3,0.6,0,0,1,-32.8302777777778,-71.2033333333333,"WGS84"
"Valparaíso","Valparaíso","Valparaíso","2015-2016","CRUCE QUINTAY","2015-12-30","00:53",105,"Sin alerta","IFor-PI","Tránsito de personasvehículos o aeronaves",0,0,0,0.05,0,0,0.06,0,0,0,0.11,-33.1647222222222,-71.5455555555556,"WGS84"
"Valparaíso","Marga Marga","Quilpué","2015-2016","VILLA PORVENIR","2015-12-30","13:35",45,"Sin alerta","IFIUr-Fo","Quema de desechos",0,0,0,0,0,0,0.05,0.15,0,0,0.2,-33.0644444444444,-71.415,"WGS84"
"Valparaíso","Valparaíso","Viña del Mar","2015-2016","MIRAFLORES ALTO","2015-12-30","14:51",122,"Sin alerta","IFIUr-Fo","Tránsito de personasvehículos o aeronaves",0,0,0,0.01,0,0,0.02,0.08,0,0,0.11,-33.035,-71.5208333333333,"WGS84"
"Valparaíso","Quillota","Calera","2015-2016","RIO ACONCAGUA","2015-12-30","15:10",115,"Sin alerta","IFor-Vn","Quema de desechos",0,0,0,0,0,0,0.3,0.4,0,0,0.7,-32.7925,-71.2336111111111,"WGS84"
"Valparaíso","Marga Marga","Villa Alemana","2015-2016","FUNDO HIJUELA DE LA OBRA 1","2015-12-30","16:15",240,"Sin alerta","IFor-Vn","Tránsito de personasvehículos o aeronaves",0,0,0,0,0,0.3,0.9,2,0,0,3.2,-33.0283333333333,-71.3711111111111,"WGS84"
"Valparaíso","Valparaíso","Valparaíso","2015-2016","PORVENIR BAJO","2015-12-30","16:15",50,"Sin alerta","IFor-Vn","Tránsito de personasvehículos o aeronaves",0,0,0,0,0,0,0,0.06,0,0,0.06,-33.0363888888889,-71.6552777777778,"WGS84"
"Valparaíso","Marga Marga","Villa Alemana","2015-2016","FUNDO HIJUELA DE LA OBRA 2","2015-12-30","16:30",154,"Sin alerta","IFor-Vn","Tránsito de personasvehículos o aeronaves",0,0,0,0,0,0,0.1,0.2,0,0,0.3,-33.0258333333333,-71.3702777777778,"WGS84"
"Valparaíso","Quillota","Calera","2015-2016","LA ARBOLEDA","2015-12-30","17:05",78,"Sin alerta","IFor-Vn","Quema de desechos",0,0,0,0,0,0,0.03,0,0,0,0.03,-32.7827777777778,-71.1819444444444,"WGS84"
"Valparaíso","Valparaíso","Concón","2015-2016","RUTA 60 CH - ENAP","2015-12-30","19:38",223,"Sin alerta","IFor-Vn","Tránsito de personasvehículos o aeronaves",0,0,0,0,0,0,1.7,0,0,0,1.7,-32.9619444444444,-71.4913888888889,"WGS84"
"Valparaíso","Valparaíso","Valparaíso","2015-2016","6° SECTOR PLAYA ANCHA","2015-12-30","23:27",87,"Sin alerta","IFor-Vn","Tránsito de personasvehículos o aeronaves",0,0,0,0,0,0,0.08,0.12,0,0,0.2,-33.0527777777778,-71.6522222222222,"WGS84"
"Valparaíso","Valparaíso","Valparaíso","2015-2016","CAMINO VIEJO A SANTIAGO","2015-12-31","02:15",106,"Sin alerta","IFor-PI","Tránsito de personasvehículos o aeronaves",0,0.04,0,0,0,0,0.1,0.1,0,0,0.24,-33.1597222222222,-71.5522222222222,"WGS84"
"Valparaíso","Marga Marga","Villa Alemana","2015-2016","CERRO LA VIRGEN","2015-12-31","14:43",130,"Sin alerta","IFIUr-Fo","Tránsito de personasvehículos o aeronaves",0,0,0,0,0,0,0.1,0.25,0,0,0.35,-33.0325,-71.3652777777778,"WGS84"
"Valparaíso","San Antonio","San Antonio","2015-2016","PARCELA 19 - SAN JUAN","2015-12-31","16:58",33,"Sin alerta","IFor-Vn","Tránsito de personasvehículos o aeronaves",0,0,0,0,0,0,0.03,0.07,0,0,0.1,-33.6352777777778,-71.5297222222222,"WGS84"
"Valparaíso","San Antonio","Santo Domingo","2015-2016","FUNDO LA GAVIOTA","2016-01-01","00:20",580,"Sin alerta","IFor-Vn","Tránsito de personasvehículos o aeronaves",0,0,0,0,0,0,0.1,0.1,0,0,0.2,-33.7038888888889,-71.6197222222222,"WGS84"
"Valparaíso","Valparaíso","Valparaíso","2015-2016","CAMINO VIEJO A SANTIAGO","2016-01-01","03:50",204,"Sin alerta","IFor-PI","Tránsito de personasvehículos o aeronaves",0,0,0,0.1,0,0,0.4,0,0,0,0.5,-33.1680555555556,-71.5452777777778,"WGS84"
"Valparaíso","Quillota","Quillota","2015-2016","VILLA BONIFACIO","2016-01-01","13:25",155,"Sin alerta","IFIUr-Fo","Tránsito de personasvehículos o aeronaves",0,0,0,0,0,0,1,5,0,0,6,-32.8997222222222,-71.2505555555556,"WGS84"
"Valparaíso","Valparaíso","Quintero","2015-2016","PUENTE STA JULIA","2016-01-01","14:29",146,"Sin alerta","IFor-Vn","Tránsito de personasvehículos o aeronaves",0,0,0,0,0,0,0.1,0.17,0,0,0.27,-32.8347222222222,-71.4725,"WGS84"
"Valparaíso","Quillota","Quillota","2015-2016","PARCELA 3 - CASAS VIEJAS RAUTEN","2016-01-01","14:42",67,"Sin alerta","IFor-Vn","Quema de desechos",0,0,0,0,0,0,0.1,0.7,0,0,0.8,-32.8816666666667,-71.2744444444444,"WGS84"
"Valparaíso","Marga Marga","Villa Alemana","2015-2016","FINAL CALLE PROGRESO","2016-01-01","17:02",72,"Sin alerta","IFor-Vn","Tránsito de personasvehículos o aeronaves",0,0,0,0,0,0,0.02,0.06,0,0,0.08,-33.0325,-71.3727777777778,"WGS84"
"Valparaíso","Valparaíso","Concón","2015-2016","LOS MANANTIALES","2016-01-01","19:15",75,"Sin alerta","IFor-PI","Tránsito de personasvehículos o aeronaves",0,0,0,0.01,0,0,0.01,0.05,0,0,0.07,-32.9322222222222,-71.5211111111111,"WGS84"
"Valparaíso","Valparaíso","Valparaíso","2015-2016","FINAL CALLE O´HIGGINS","2016-01-01","21:10",180,"Sin alerta","IFor-Vn","Tránsito de personasvehículos o aeronaves",0,0,0,0.02,0,0,0,0.05,0,0,0.07,-33.1219444444444,-71.5444444444445,"WGS84"
"Valparaíso","San Antonio","Cartagena","2015-2016","TUMBA  EL POETA","2016-01-02","10:27",186,"Sin alerta","IFor-Vn","Tránsito de personasvehículos o aeronaves",0,0,0,0,0,0.8,0,8,0,0,8.8,-33.5577777777778,-71.6022222222222,"WGS84"
"Valparaíso","San Antonio","San Antonio","2015-2016","FUNDO MIRAMAR","2016-01-02","14:22",218,"Sin alerta","IFor-Vn","Tránsito de personasvehículos o aeronaves",0,0,0,0.1,0,0,0.6,29,0,0,29.7,-33.5683333333333,-71.5880555555556,"WGS84"
"Valparaíso","Quillota","Calera","2015-2016","FINAL CALLE SAN DIEGO","2016-01-03","13:40",99,"Sin alerta","IFor-Vn","Actividades extinción incendios forestalesincendios estructurales u otros",0,0,0,0,0,0,0.2,1,0,0,1.2,-32.7813888888889,-71.2141666666667,"WGS84"
"Valparaíso","Valparaíso","Viña del Mar","2015-2016","VILLA DULCE","2016-01-03","16:00",91,"Sin alerta","IFor-Vn","Tránsito de personasvehículos o aeronaves",0,0,0,0,0,0.01,0.02,0.03,0,0,0.06,-33.0302777777778,-71.5011111111111,"WGS84"
"Valparaíso","Marga Marga","Limache","2015-2016","CUESTA EL PANGAL","2016-01-05","16:20",89,"Sin alerta","IFor-PI","Tránsito de personasvehículos o aeronaves",0,0,0,0,0,0,0,0.3,0,0.04,0.34,-33.0358333333333,-71.2822222222222,"WGS84"
"Valparaíso","Valparaíso","Quintero","2015-2016","LOMAS DE MANTAGUA","2016-01-05","18:39",201,"Sin alerta","IFor-Vn","Tránsito de personasvehículos o aeronaves",0,0,0,0,0,0,0.1,0.13,0,0,0.23,-32.8541666666667,-71.4938888888889,"WGS84"
"Valparaíso","Valparaíso","Valparaíso","2015-2016","CALLE UNDÉCIMA","2016-01-05","23:07",103,"Sin alerta","IFor-Vn","Tránsito de personasvehículos o aeronaves",0,0,0,0.05,0,0,0.05,0,0,0,0.1,-33.1236111111111,-71.5452777777778,"WGS84"
"Valparaíso","Marga Marga","Villa Alemana","2015-2016","MONTE CARMELO","2016-01-06","15:58",179,"Sin alerta","IFor-PI","Tránsito de personasvehículos o aeronaves",0,0,0,0.6,0,0,1,1.5,0,0,3.1,-33.0316666666667,-71.36,"WGS84"
"Valparaíso","Valparaíso","Valparaíso","2015-2016","CALLE LAS QUINTAS C° LA CRUZ","2016-01-06","16:20",52,"Sin alerta","IFor-Vn","Tránsito de personasvehículos o aeronaves",0,0,0,0,0,0,0,0.04,0,0,0.04,-33.0566666666667,-71.6133333333333,"WGS84"
"Valparaíso","Valparaíso","Quintero","2015-2016","LOMAS DE MANTAGUA","2016-01-06","17:31",160,"Sin alerta","IFor-Vn","Tránsito de personasvehículos o aeronaves",0,0,0,0,0,0,0.05,0.09,0,0,0.14,-32.8536111111111,-71.4933333333333,"WGS84"
"Valparaíso","San Antonio","San Antonio","2015-2016","CAMINO VIEJO A CARTAGENA","2016-01-06","17:46",29,"Sin alerta","IFor-Vn","Tránsito de personasvehículos o aeronaves",0,0,0,0,0,0,0,0.1,0,0,0.1,-33.5594444444444,-71.6088888888889,"WGS84"
"Valparaíso","San Antonio","El Tabo","2015-2016","ALTO LAS CRUCES","2016-01-07","14:50",167,"Alerta amarilla","IFor-Vn","Tránsito de personasvehículos o aeronaves",0,0,0,6.8,0,0,0,4,0,0,10.8,-33.4683333333333,-71.6119444444444,"WGS84"
"Valparaíso","Valparaíso","Casablanca","2015-2016","CRUCE LA VINILLA","2016-01-07","15:02",81,"Sin alerta","IFor-Vn","Tránsito de personasvehículos o aeronaves",0,0,0,0,0,0,0.5,1,0,0,1.5,-33.36,-71.3216666666667,"WGS84"
"Valparaíso","San Antonio","San Antonio","2015-2016","FUNDO MIRAMAR","2016-01-07","15:24",168,"Sin alerta","IFIUr-Fo","Tránsito de personasvehículos o aeronaves",0,0,0,1.6,0,0,0,4,0,0,5.6,-33.5852777777778,-71.595,"WGS84"
"Valparaíso","Valparaíso","Viña del Mar","2015-2016","JARDIN BOTANICO","2016-01-07","17:02",72,"Sin alerta","IFor-Vn","Tránsito de personasvehículos o aeronaves",0,0,0,0,0,0,0.02,0.05,0,0,0.07,-33.0388888888889,-71.5044444444444,"WGS84"
"Valparaíso","San Antonio","San Antonio","2015-2016","PELANCURA","2016-01-07","21:55",124,"Sin alerta","IFIUr-Fo","Tránsito de personasvehículos o aeronaves",0,0,0,0,0,0,0.3,3,0,0,3.3,-33.5730555555556,-71.6208333333333,"WGS84"
"Valparaíso","Valparaíso","Valparaíso","2015-2016","LAS HUALAS","2016-01-08","11:00",117,"Sin alerta","IFor-Vn","Tránsito de personasvehículos o aeronaves",0,0,0,0,0,0,0.01,0,0,0,0.01,-33.1572222222222,-71.5383333333333,"WGS84"
"Valparaíso","San Antonio","Cartagena","2015-2016","CANCHA PUERTO NUEVO","2016-01-08","16:40",50,"Sin alerta","IFIUr-Fo","Quema de desechos",0,0,0,0,0,0,0,0.2,0,0,0.2,-33.5594444444444,-71.6075,"WGS84"
"Valparaíso","Valparaíso","Valparaíso","2015-2016","ESCUELA PEÑUELAS","2016-01-08","23:35",102,"Sin alerta","IFor-PI","Tránsito de personasvehículos o aeronaves",0,0,0,0.01,0,0,0.01,0.02,0,0,0.04,-33.1597222222222,-71.5519444444444,"WGS84"
"Valparaíso","Valparaíso","Valparaíso","2015-2016","LA MARIPOSA","2016-01-09","11:38",136,"Sin alerta","IFor-Vn","Tránsito de personasvehículos o aeronaves",0,0,0,0,0,0.03,0,0.02,0,0,0.05,-33.155,-71.5736111111111,"WGS84"
"Valparaíso","Petorca","Zapallar","2015-2016","ASENTAMIENTO CATAPILCO","2016-01-09","11:50",94,"Sin alerta","IFor-Vn","Tránsito de personasvehículos o aeronaves",0,0,0,0,0,0,0,0.35,0,0,0.35,-32.5797222222222,-71.3011111111111,"WGS84"
"Valparaíso","Valparaíso","Valparaíso","2015-2016","TRANQUE EL PERAL","2016-01-09","12:10",50,"Sin alerta","IFIUr-Fo","Quema de desechos",0,0,0,0,0,0,0,0.04,0,0.01,0.05,-33.1225,-71.5480555555555,"WGS84"
"Valparaíso","Valparaíso","Valparaíso","2015-2016","LAGUNA EL PLATEADO","2016-01-09","14:20",102,"Sin alerta","IFor-PI","Tránsito de personasvehículos o aeronaves",0,0,0,0.05,0,0,0,0.05,0,0,0.1,-33.0791666666667,-71.6477777777778,"WGS84"
"Valparaíso","Marga Marga","Limache","2015-2016","POBLACION MANUEL RODRIGUEZ","2016-01-09","15:40",121,"Sin alerta","IFor-Vn","Tránsito de personasvehículos o aeronaves",0,0,0,0,0,0,0.4,1,0,0,1.4,-33.0183333333333,-71.2611111111111,"WGS84"
"Valparaíso","Marga Marga","Villa Alemana","2015-2016","CALLE ARANDA","2016-01-09","16:10",176,"Sin alerta","IFor-PI","Tránsito de personasvehículos o aeronaves",0,0,0,0.03,0,0,0.03,0.3,0,0,0.36,-33.0330555555556,-71.3794444444444,"WGS84"
"Valparaíso","Valparaíso","Valparaíso","2015-2016","CASAS DE PEÑUELAS","2016-01-09","16:36",59,"Sin alerta","IFor-PI","Tránsito de personasvehículos o aeronaves",0,0,0,0.01,0,0,0.03,0.06,0,0,0.1,-33.1558333333333,-71.5563888888889,"WGS84"
"Valparaíso","Quillota","Quillota","2015-2016","EL MANZANAR","2016-01-09","17:28",186,"Sin alerta","IFor-Vn","Tránsito de personasvehículos o aeronaves",0,0,0,0,0,0,1.7,7.5,0,0,9.2,-32.9166666666667,-71.3258333333333,"WGS84"
"Valparaíso","San Antonio","San Antonio","2015-2016","CERRO LA VIRGEN","2016-01-09","17:58",42,"Sin alerta","IFor-Vn","Tránsito de personasvehículos o aeronaves",0,0,0,0,0,0,0,0,0,0.05,0.05,-33.5697222222222,-71.6172222222222,"WGS84"
"Valparaíso","Valparaíso","Viña del Mar","2015-2016","NUEVA AURORA","2016-01-10","00:04",150,"Sin alerta","IFor-Vn","Tránsito de personasvehículos o aeronaves",0,0,0,0,0,0,0.02,0.03,0,0,0.05,-33.0402777777778,-71.5588888888889,"WGS84"
"Valparaíso","Valparaíso","Valparaíso","2015-2016","COLEGIO UMBRAL PLACILLA","2016-01-10","01:05",72,"Sin alerta","IFor-PI","Tránsito de personasvehículos o aeronaves",0,0.03,0,0,0,0,0.08,0.09,0,0,0.2,-33.1152777777778,-71.5827777777778,"WGS84"
"Valparaíso","Quillota","Quillota","2015-2016","AGUSTIN AVEZON","2016-01-10","16:05",116,"Sin alerta","IFor-Vn","Tránsito de personasvehículos o aeronaves",0,0,0,0,0,0,0.01,0.03,0,0,0.04,-32.8836111111111,-71.2694444444444,"WGS84"
"Valparaíso","Quillota","Quillota","2015-2016","EL BOCO - PARADA 18","2016-01-10","16:05",150,"Sin alerta","IFor-Vn","Tránsito de personasvehículos o aeronaves",0,0,0,0,0,0.1,0.13,0.2,0,0,0.43,-32.8472222222222,-71.2530555555556,"WGS84"
"Valparaíso","Marga Marga","Limache","2015-2016","SANTA ROSA","2016-01-10","16:28",217,"Sin alerta","IFIUr-Fo","Tránsito de personasvehículos o aeronaves",0,0,0,5,0,0,3,5,0,0,13,-33.0505555555556,-71.2116666666667,"WGS84"
"Valparaíso","San Antonio","San Antonio","2015-2016","AGUAS SALADAS","2016-01-10","17:00",75,"Sin alerta","IFor-Vn","Tránsito de personasvehículos o aeronaves",0,0,0,0,0,0,0,0.2,0,0,0.2,-33.5636111111111,-71.6244444444444,"WGS84"
"Valparaíso","Marga Marga","Villa Alemana","2015-2016","FUNDO EL TRIANGULO","2016-01-10","18:49",56,"Sin alerta","IFor-Vn","Actividades recreativas",0,0,0,0,0,0,0.2,0.6,0,0,0.8,-33.0736111111111,-71.3677777777778,"WGS84"
"Valparaíso","Marga Marga","Villa Alemana","2015-2016","OJOS DE AGUA","2016-01-10","22:08",42,"Sin alerta","IFor-Vn","Tránsito de personasvehículos o aeronaves",0,0,0,0,0,0,0.04,0.06,0,0,0.1,-33.0608333333333,-71.3991666666667,"WGS84"
"Valparaíso","Valparaíso","Valparaíso","2015-2016","6° SECTOR PLAYA ANCHA","2016-01-11","00:00",75,"Sin alerta","IFor-Vn","Tránsito de personasvehículos o aeronaves",0,0,0,0,0,0,0.02,0.03,0,0,0.05,-33.0533333333333,-71.6527777777778,"WGS84"
"Valparaíso","Valparaíso","Valparaíso","2015-2016","CRUCE LAS TABLAS","2016-01-11","23:00",41,"Sin alerta","IFor-Vn","Tránsito de personasvehículos o aeronaves",0,0,0,0,0,0,0,0.01,0,0,0.01,-33.1697222222222,-71.5477777777778,"WGS84"
"Valparaíso","Valparaíso","Casablanca","2015-2016","TRANQUE LO OVALLE","2016-01-12","14:10",124,"Sin alerta","IFor-Vn","Tránsito de personasvehículos o aeronaves",0,0,0,0,0,0,0,0.3,0,0,0.3,-33.2469444444444,-71.3475,"WGS84"
"Valparaíso","Marga Marga","Villa Alemana","2015-2016","LOS MARISTAS","2016-01-12","17:04",138,"Sin alerta","IFIUr-Fo","Tránsito de personasvehículos o aeronaves",0,0,0,0.02,0,0,0.38,1.3,0,0,1.7,-33.0302777777778,-71.3669444444444,"WGS84"
"Valparaíso","San Antonio","Cartagena","2015-2016","COPA DE AGUA","2016-01-12","17:32",30,"Sin alerta","IFor-Vn","Incendios intencionales",0,0,0,0,0,0,0,0.05,0,0,0.05,-33.5566666666667,-71.6102777777778,"WGS84"
"Valparaíso","Quillota","Calera","2015-2016","LA PALMILLA","2016-01-12","17:58",117,"Sin alerta","IFor-Vn","Tránsito de personasvehículos o aeronaves",0,0,0,0,0,0,0.03,0.08,0,0,0.11,-32.7991666666667,-71.2016666666667,"WGS84"
"Valparaíso","Valparaíso","Puchuncavi","2015-2016","TIRILLUCA-CAMPICHE","2016-01-12","18:20",143,"Sin alerta","IFor-Vn","Faenas forestales",0,0,0,0,0,0,0,0,0,0.1,0.1,-32.7252777777778,-71.4472222222222,"WGS84"
"Valparaíso","Marga Marga","Villa Alemana","2015-2016","FINAL CALLE COVADONGA","2016-01-12","19:00",83,"Sin alerta","IFor-Vn","Incendios intencionales",0,0,0,0,0,0,0.02,0.2,0,0,0.22,-33.0313888888889,-71.3552777777778,"WGS84"
"Valparaíso","San Antonio","Cartagena","2015-2016","AGUAS SALADAS","2016-01-12","19:45",31,"Sin alerta","IFIUr-Fo","Tránsito de personasvehículos o aeronaves",0,0,0,0,0,0,0,0.2,0,0,0.2,-33.5619444444444,-71.6072222222222,"WGS84"
"Valparaíso","Valparaíso","Valparaíso","2015-2016","FINAL CALLE UNDECIMA","2016-01-12","22:36",59,"Sin alerta","IFor-Vn","Tránsito de personasvehículos o aeronaves",0,0,0,0.05,0,0,0,0.1,0,0,0.15,-33.1241666666667,-71.5436111111111,"WGS84"
"Valparaíso","San Felipe de Aconcagua","Catemu","2015-2016","COLEGIO AGRICOLA","2016-01-13","13:40",63,"Sin alerta","IFor-Vn","Tránsito de personasvehículos o aeronaves",0,0,0,0,0,0,0,0.2,0,0,0.2,-32.7611111111111,-70.9430555555556,"WGS84"
"Valparaíso","Marga Marga","Villa Alemana","2015-2016","QUEBRADA ESCOBAR - AGUAS FRIAS","2016-01-13","14:27",254,"Alerta amarilla","IFor-Vn","Tránsito de personasvehículos o aeronaves",0,0,0,0,0,0.9,1.5,3.5,0,0,5.9,-33.0597222222222,-71.3047222222222,"WGS84"
"Valparaíso","San Antonio","San Antonio","2015-2016","BELLAVISTA BRASIL","2016-01-13","15:15",34,"Sin alerta","IFor-Vn","Tránsito de personasvehículos o aeronaves",0,0,0,0,0,0,0,0.02,0,0,0.02,-33.57,-71.6025,"WGS84"
"Valparaíso","Marga Marga","Villa Alemana","2015-2016","FUNDO SANTA ROSA","2016-01-13","15:22",72,"Sin alerta","IFor-Vn","Tránsito de personasvehículos o aeronaves",0,0,0,0,0,0,0.07,0.1,0,0,0.17,-33.0811111111111,-71.37,"WGS84"
"Valparaíso","San Antonio","San Antonio","2015-2016","LA CAMPIÑA","2016-01-13","16:10",60,"Sin alerta","IFor-Vn","Tránsito de personasvehículos o aeronaves",0,0,0,0,0,0,0.1,0.2,0,0,0.3,-33.6163888888889,-71.5936111111111,"WGS84"
"Valparaíso","Valparaíso","Casablanca","2015-2016","PUENTE LA DRAGA","2016-01-13","17:00",206,"Sin alerta","IFor-Vn","Incendios intencionales",0,0,0,0,0,0,0.8,6,0,0,6.8,-33.2875,-71.4822222222222,"WGS84"
"Valparaíso","San Antonio","Santo Domingo","2015-2016","PARCELA 7 CAMPO ALEGRE","2016-01-13","18:20",147,"Sin alerta","IFor-Vn","Tránsito de personasvehículos o aeronaves",0,0,0,0,0,0,0.3,0.5,0,0,0.8,-33.8602777777778,-71.735,"WGS84"
"Valparaíso","Marga Marga","Villa Alemana","2015-2016","POBLACION SAN JOSE","2016-01-13","18:35",39,"Sin alerta","IFIUr-Fo","Actividades recreativas",0,0,0,0,0,0,0,0.1,0,0,0.1,-33.0669444444444,-71.3758333333333,"WGS84"
"Valparaíso","San Antonio","Cartagena","2015-2016","CAMINO VIEJO CARTAGENA-LAS ANTENAS","2016-01-14","15:17",50,"Sin alerta","IFIUr-Fo","Tránsito de personasvehículos o aeronaves",0,0,0,0,0,0,0,0.03,0,0,0.03,-33.5625,-71.5925,"WGS84"
"Valparaíso","Valparaíso","Puchuncavi","2015-2016","CAMPICHE","2016-01-14","16:20",133,"Sin alerta","IFor-Vn","Actividades recreativas",0,0,0,0.07,0,0,0,0.1,0,0,0.17,-32.7258333333333,-71.4505555555556,"WGS84"
"Valparaíso","San Antonio","San Antonio","2015-2016","BELLAVISTA","2016-01-15","12:07",116,"Sin alerta","IFIUr-Fo","Actividades recreativas",0,0,0,0,0,0,1,1.7,0,0,2.7,-33.5663888888889,-71.6027777777778,"WGS84"
"Valparaíso","Valparaíso","Valparaíso","2015-2016","PORVENIR BAJO","2016-01-15","14:08",52,"Sin alerta","IFIUr-Fo","Tránsito de personasvehículos o aeronaves",0,0,0,0,0,0,0,0.1,0,0,0.1,-33.0383333333333,-71.6336111111111,"WGS84"
"Valparaíso","Quillota","Hijuelas","2015-2016","CUATRO ESQUINAS","2016-01-15","14:20",40,"Sin alerta","IFor-Vn","Actividades extinción incendios forestalesincendios estructurales u otros",0,0,0,0,0,0,0,0.02,0,0,0.02,-32.8191666666667,-71.1441666666667,"WGS84"
"Valparaíso","San Antonio","Santo Domingo","2015-2016","EL CONVENTO","2016-01-15","14:33",1282,"Alerta roja","IFor-Vn","Tránsito de personasvehículos o aeronaves",0,1.2,0,1.86,0,119.58,101.03,70.33,0,0,294,-33.7527777777778,-71.5497222222222,"WGS84"
"Valparaíso","Quillota","Quillota","2015-2016","SAN ISIDRO","2016-01-15","14:42",63,"Sin alerta","IFor-Vn","Tránsito de personasvehículos o aeronaves",0,0,0,0,0,0,0,0.04,0,0.04,0.08,-32.9383333333333,-71.3138888888889,"WGS84"
"Valparaíso","Quillota","Quillota","2015-2016","POBLACION ANTUMAPU","2016-01-15","15:26",80,"Sin alerta","IFor-Vn","Tránsito de personasvehículos o aeronaves",0,0,0,0,0,0,0.2,0.4,0,0,0.6,-32.8883333333333,-71.2686111111111,"WGS84"
"Valparaíso","Valparaíso","Viña del Mar","2015-2016","JARDINES DE AGUAS SANTA","2016-01-15","15:45",97,"Sin alerta","IFor-Vn","Tránsito de personasvehículos o aeronaves",0,0,0,0,0,0,0.1,0.4,0,0,0.5,-33.0375,-71.57,"WGS84"
"Valparaíso","Marga Marga","Villa Alemana","2015-2016","POBLACION PRAT","2016-01-15","15:56",80,"Sin alerta","IFIUr-Fo","Tránsito de personasvehículos o aeronaves",0,0,0,0,0,0,0.03,0.07,0,0,0.1,-33.0658333333333,-71.3608333333333,"WGS84"
"Valparaíso","Petorca","Zapallar","2015-2016","EL MORRO","2016-01-15","16:25",107,"Sin alerta","IFIUr-Fo","Tránsito de personasvehículos o aeronaves",0,0,0,0,0,0,0.15,0.3,0,0.55,1,-32.5583333333333,-71.4613888888889,"WGS84"
"Valparaíso","San Antonio","Santo Domingo","2015-2016","CAMPO ALEGRE","2016-01-15","16:40",281,"Sin alerta","IFor-Vn","Tránsito de personasvehículos o aeronaves",0,0,0,0.2,0,0,0.5,1.5,0,0,2.2,-33.8602777777778,-71.7338888888889,"WGS84"
"Valparaíso","San Antonio","Cartagena","2015-2016","PUERTO NUEVO","2016-01-15","17:10",80,"Sin alerta","IFIUr-Fo","Actividades recreativas",0,0,0,0,0,0,0,0.3,0,0,0.3,-33.56,-71.6077777777778,"WGS84"
"Valparaíso","Marga Marga","Quilpué","2015-2016","FRUTILLAR","2016-01-15","18:50",98,"Sin alerta","IFor-Vn","Tránsito de personasvehículos o aeronaves",0,0,0,0,0,0,0.8,1.2,0,0,2,-33.0252777777778,-71.4097222222222,"WGS84"
"Valparaíso","Valparaíso","Viña del Mar","2015-2016","SUB-ESTACION LAS PALMAS","2016-01-15","19:46",59,"Sin alerta","IFor-PI","Tránsito de personasvehículos o aeronaves",0,0,0,0.01,0,0,0.01,0.03,0,0,0.05,-33.0744444444444,-71.5497222222222,"WGS84"
"Valparaíso","Marga Marga","Villa Alemana","2015-2016","FUNDO RECREO","2016-01-15","20:18",28,"Alerta roja","IFor-Vn","Tránsito de personasvehículos o aeronaves",0,0,0,0,0,0,9,21.5,0,0,30.5,-33.0786111111111,-71.3697222222222,"WGS84"
"Valparaíso","Marga Marga","Villa Alemana","2015-2016","FUNDO EL TRIANGULO","2016-01-15","20:22",59,"Sin alerta","IFor-Vn","Tránsito de personasvehículos o aeronaves",0,0,0,0,0,0,3.2,1.8,0,0,5,-33.0711111111111,-71.3688888888889,"WGS84"
"Valparaíso","Marga Marga","Villa Alemana","2015-2016","FINAL VALENTIN LETELIER","2016-01-15","23:03",144,"Sin alerta","IFor-Vn","Tránsito de personasvehículos o aeronaves",0,0,0,0,0,0,0.39,0.75,0,0,1.14,-33.0308333333333,-71.3566666666667,"WGS84"
"Valparaíso","Valparaíso","Quintero","2015-2016","LOMAS DEL VALLE","2016-01-16","11:59",168,"Sin alerta","IFor-Vn","Tránsito de personasvehículos o aeronaves",0,0,0,0,0,0,0.07,0.1,0,0,0.17,-32.8202777777778,-71.4347222222222,"WGS84"
"Valparaíso","Marga Marga","Villa Alemana","2015-2016","CAJON DEL LEBU","2016-01-16","14:13",147,"Sin alerta","IFor-Vn","Tránsito de personasvehículos o aeronaves",0,0,0,0,0,0.3,0.1,1.3,0,0,1.7,-33.0169444444444,-71.3705555555556,"WGS84"
"Valparaíso","Valparaíso","Concón","2015-2016","PARQUE INDUSTRIAL","2016-01-16","14:40",117,"Sin alerta","IFIUr-Fo","Tránsito de personasvehículos o aeronaves",0,0,0,0,0,0,0.21,1.2,0,0,1.41,-32.9363888888889,-71.4941666666667,"WGS84"
"Valparaíso","Valparaíso","Valparaíso","2015-2016","TRANQUE LA LUZ","2016-01-16","16:26",214,"Sin alerta","IFor-Vn","Tránsito de personasvehículos o aeronaves",0,0,0,1.17,0,0,0,0,0,0,1.17,-33.1397222222222,-71.5813888888889,"WGS84"
